"SCHOOL_YEAR","MINCODE","SCHOOL_NAME","DISTRICT_NUMBER","DISTRICT_NAME","PUBLIC_OR_INDEPENDENT","STREET_ADDRESS","PHYSICAL_ADDRESS_CITY","ADDRESS_POSTAL_CODE","FACILITY_TYPE","SCHOOL_EDUCATION_LEVEL","HAS_CORE_FRENCH","HAS_EARLY_FRENCH_IMMERSION","HAS_LATE_FRENCH_IMMERSION","HAS_PROG_FRANCOPHONE","LATITUDE","LONGITUDE","DESIGN_CAPACITY_TOTAL"
"2025/2026","00501007","Jaffray Elem-Jr Secondary","005","Southeast Kootenay","Public School","PO Box 378","Jaffray","V0B1T0","Standard School","Elementary Jr. Secondary","YES","NO","NO","NO",49.3717011,-115.3014209,370
"2025/2026","00501009","Isabella Dicken Elementary","005","Southeast Kootenay","Public School","PO Box 1559","Fernie","V0B1M0","Standard School","Elementary","YES","YES","YES","NO",49.509683,-115.0545399,480
"2025/2026","00501010","Frank J Mitchell Elementary","005","Southeast Kootenay","Public School","PO Box 345","Sparwood","V0B2G0","Standard School","Elementary","YES","NO","NO","NO",49.7361573,-114.8928227,320
"2025/2026","00501017","Rocky Mountain Elementary","005","Southeast Kootenay","Public School","PO Box 460","Elkford","V0B1H0","Standard School","Elementary","YES","NO","NO","NO",50.0069162,-114.931646,295
"2025/2026","00502001","Mount Baker Secondary","005","Southeast Kootenay","Public School","1410 Baker St","Cranbrook","V1C1B2","Standard School","Elementary","YES","YES","NO","NO",49.5130347,-115.7616032,925
"2025/2026","00502011","Laurie Middle School","005","Southeast Kootenay","Public School","1808 2nd St S","Cranbrook","V1C1C5","Standard School","Middle School","YES","NO","NO","NO",49.5098449,-115.7552037,525
"2025/2026","00502024","T M Roberts Elementary","005","Southeast Kootenay","Public School","10 Wattsville Rd","Cranbrook","V1C2A2","Standard School","Elementary","YES","YES","NO","NO",49.5024852,-115.7784321,410
"2025/2026","00502028","Gordon Terrace Elementary","005","Southeast Kootenay","Public School","1200 5th Ave S","Cranbrook","V1C2H1","Standard School","Elementary","YES","NO","NO","NO",49.4965489,-115.7732592,295
"2025/2026","00502029","Highlands Elementary","005","Southeast Kootenay","Public School","3300 7th St S","Cranbrook","V1C5G3","Standard School","Elementary","YES","NO","NO","NO",49.502492,-115.7360156,295
"2025/2026","00502030","Pinewood Elementary","005","Southeast Kootenay","Public School","40 Pinewood Ave W","Cranbrook","V1C5X8","Standard School","Elementary","YES","NO","NO","NO",49.5150845,-115.7737413,195
"2025/2026","00502031","Steeples Elementary","005","Southeast Kootenay","Public School","700 24th Ave N","Cranbrook","V1C5P6","Standard School","Elementary","YES","NO","NO","NO",49.5183611,-115.7467579,270
"2025/2026","00502032","Kootenay Orchards Elementary","005","Southeast Kootenay","Public School","1301 - 20th Ave S","Cranbrook","V1C6N5","Standard School","Elementary","YES","NO","NO","NO",49.4957315,-115.7555554,240
"2025/2026","00505018","Parkland Middle School","005","Southeast Kootenay","Public School","1115 2nd Ave S","Cranbrook","V1C2B4","Standard School","Elementary","YES","YES","NO","NO",49.4967036,-115.7807388,600
"2025/2026","00505033","Elkford Elementary Secondary","005","Southeast Kootenay","Public School","PO Box 910","Elkford","V0B1H0","Standard School","Elementary","YES","NO","NO","NO",50.0076731,-114.9316448,425
"2025/2026","00505034","Fernie Secondary","005","Southeast Kootenay","Public School","PO Box 370","Fernie","V0B1M0","Standard School","Elementary-Secondary","YES","YES","YES","NO",49.513593,-115.0531442,700
"2025/2026","00505035","Sparwood Secondary","005","Southeast Kootenay","Public School","PO Box 67","Sparwood","V0B2G0","Standard School","Elementary","YES","NO","NO","NO",49.7357264,-114.8915519,375
"2025/2026","00596109","St Mary's Catholic Independent","005","Southeast Kootenay","Independent School","1701 5th St S","Cranbrook","V1C1K1","Standard School","Elementary","YES","NO","NO","NO",49.5030037,-115.7566909,
"2025/2026","00596640","Kootenay Christian Academy","005","Southeast Kootenay","Independent School","1200 Kootenay St N","Cranbrook","V1C5X1","Standard School","Elementary-Secondary","YES","NO","NO","NO",49.5240732,-115.7431499,
"2025/2026","00596715","The Fernie Academy","005","Southeast Kootenay","Independent School","PO Box 2677","Fernie","V0B1M0","Standard School","Elementary-Secondary","YES","NO","NO","NO",49.5026647,-115.062041,
"2025/2026","00599078","Kootenay Educational Services","005","Southeast Kootenay","Public School","25 17th Ave N","Cranbrook","V1C3W9","Alternate Programs School","Secondary","NO","NO","NO","NO",49.5133581,-115.7582117,
"2025/2026","00599156","Kootenay Discovery School","005","Southeast Kootenay","Public School","802 2nd Ave","Fernie","V0B1M0","District Online Learning School","Elementary-Secondary","NO","NO","NO","NO",49.5058867,-115.0583102,
"2025/2026","00603005","Marysville Elementary","006","Rocky Mountain","Public School","546 309 Ave","Kimberley","V1A3J3","Standard School","Elementary","NO","NO","NO","NO",49.6345692,-115.9509509,220
"2025/2026","00603007","Lindsay Park Elementary","006","Rocky Mountain","Public School","602 Salmo St","Kimberley","V1A2M8","Standard School","Elementary","NO","NO","NO","NO",49.6927192,-115.9831162,170
"2025/2026","00603008","Selkirk Secondary School","006","Rocky Mountain","Public School","405 Halpin St","Kimberley","V1A2H1","Standard School","Secondary","YES","NO","NO","NO",49.686636,-115.9801132,525
"2025/2026","00604007","Windermere Elementary","006","Rocky Mountain","Public School","4747 Government St","Windermere","V0B2L2","Standard School","Elementary","YES","NO","NO","NO",50.4660883,-115.9867112,145
"2025/2026","00604011","Edgewater Elementary","006","Rocky Mountain","Public School","PO Box 69","Edgewater","V0A1E0","Standard School","Elementary","YES","NO","NO","NO",50.6954222,-116.1374984,145
"2025/2026","00604012","J Alfred Laird Elementary","006","Rocky Mountain","Public School","1202 13th Avenue","Invermere","V0A1K4","Standard School","Elementary","YES","NO","NO","NO",50.504648,-116.0390485,225
"2025/2026","00604013","Martin Morigeau Elementary","006","Rocky Mountain","Public School","4891 Beatty Avenue","Canal Flats","V0B1B0","Standard School","Elementary","YES","NO","NO","NO",50.1614008,-115.8177075,120
"2025/2026","00604014","Eileen Madson Primary School","006","Rocky Mountain","Public School","2001 15th Ave","Invermere","V0A1K4","Standard School","Elementary","NO","NO","NO","NO",50.4963742,-116.0413057,170
"2025/2026","00604015","David Thompson Secondary","006","Rocky Mountain","Public School","1535 14th St Unit 1 Rr 4","Invermere","V0A1K4","Standard School","Secondary","YES","NO","NO","NO",50.5022144,-116.0411422,675
"2025/2026","00606000","Continuing Ed SD 06","006","Rocky Mountain","Public School","Box 2613","Invermere","V0A1K0","Continuing Education School","Elementary","NO","NO","NO","NO",50.5022144,-116.0411422,
"2025/2026","00606017","Mckim Middle School","006","Rocky Mountain","Public School","689 Rotary Dr","Kimberley","V1A1E4","Standard School","Elementary","YES","NO","NO","NO",49.6801578,-115.9799118,400
"2025/2026","00618003","Lady Grey Elementary","006","Rocky Mountain","Public School","PO Box 899","Golden","V0A1H0","Standard School","Elementary","YES","YES","NO","NO",51.2956813,-116.9721455,270
"2025/2026","00618005","Golden Secondary","006","Rocky Mountain","Public School","PO Box 1350","Golden","V0A1H0","Standard School","Secondary","YES","YES","NO","NO",51.2965518,-116.9496193,550
"2025/2026","00618007","Nicholson Elementary","006","Rocky Mountain","Public School","PO Box 331","Golden","V0A1H0","Standard School","Elementary","YES","NO","NO","NO",51.2442873,-116.9089217,120
"2025/2026","00618008","Alexander Park Elementary","006","Rocky Mountain","Public School","PO Box 464","Golden","V0A1H0","Standard School","Elementary","NO","NO","NO","NO",51.2951161,-116.9524763,220
"2025/2026","00696795","Kimberley Independent School","006","Rocky Mountain","Independent School","73 101 Ave","Kimberley","V1A1A5","Standard School","Elementary","YES","NO","NO","NO",49.6652812,-115.9670209,
"2025/2026","00696988","Purcell Collegiate School","006","Rocky Mountain","Independent School","1850 Warren Ave.","Kimberley","V1A1S1","Standard School","Secondary","NO","NO","NO","NO",,,
"2025/2026","00699069","Golden Alternate School","006","Rocky Mountain","Public School","PO Box 1350","Golden","V0A1H0","Alternate Programs School","Secondary","NO","NO","NO","NO",51.2958808,-116.9661705,
"2025/2026","00699086","Kimberley Alternate School","006","Rocky Mountain","Public School","214 7th Avenue","Invermere","V0A1K0","Alternate Programs School","Secondary","NO","NO","NO","NO",49.6826037,-115.9806203,
"2025/2026","00699127","Open Doors Alternate Education","006","Rocky Mountain","Public School","PO Box 430","Invermere","V0A1K0","Alternate Programs School","Secondary","NO","NO","NO","NO",50.5114556,-116.0306248,
"2025/2026","00699157","Rocky Mountain Online Learning","006","Rocky Mountain","Public School","Box 430","Invermere","V0A1K0","District Online Learning School","Elementary-Secondary","YES","NO","NO","NO",50.5022144,-116.0411422,
"2025/2026","00807004","Hume Elementary School","008","Kootenay Lake","Public School","310 Nelson Ave","Nelson","V1L2M8","Standard School","Elementary","YES","NO","NO","NO",49.5008964,-117.278968,270
"2025/2026","00807005","Trafalgar Middle School","008","Kootenay Lake","Public School","1201 Josephine St","Nelson","V1L1X8","Standard School","Middle School","YES","YES","YES","NO",49.4881416,-117.287171,575
"2025/2026","00807011","Salmo Elementary School","008","Kootenay Lake","Public School","Po Drawer 220","Salmo","V0G1Z0","Standard School","Elementary","YES","NO","NO","NO",49.1894581,-117.2750004,270
"2025/2026","00807012","Salmo Secondary","008","Kootenay Lake","Public School","PO Box 310","Salmo","V0G1Z0","Standard School","Elementary-Secondary","YES","NO","NO","NO",49.1904458,-117.2815819,200
"2025/2026","00807013","L V Rogers Secondary","008","Kootenay Lake","Public School","1004 Cottonwood Street","Nelson","V1L3W2","Standard School","Secondary","NO","YES","NO","NO",49.5011502,-117.2721215,725
"2025/2026","00807014","South Nelson Elementary","008","Kootenay Lake","Public School","814 Latimer St","Nelson","V1L4V7","Standard School","Elementary","YES","NO","NO","NO",49.4892396,-117.2858369,220
"2025/2026","00807016","Blewett Elementary School","008","Kootenay Lake","Public School","2665 Blewett Rd","Nelson","V1L6V4","Standard School","Elementary","YES","NO","NO","NO",49.4920102,-117.3686467,170
"2025/2026","00807018","Rosemont Elementary School","008","Kootenay Lake","Public School","1605 Crease Street","Nelson","V1L1A5","Standard School","Elementary","YES","NO","NO","NO",49.4806084,-117.301453,170
"2025/2026","00807025","Mount Sentinel Secondary","008","Kootenay Lake","Public School","PO Box 99","South Slocan","V0G2G0","Standard School","Elementary-Secondary","YES","NO","NO","NO",49.4463804,-117.5373076,400
"2025/2026","00807026","W.E. Graham Community School","008","Kootenay Lake","Public School","PO Box 10","Slocan","V0G2C0","Standard School","Elementary Jr. Secondary","YES","NO","NO","NO",49.7633498,-117.4707058,245
"2025/2026","00807033","Brent Kennedy Elementary","008","Kootenay Lake","Public School","PO Box 40","Crescent Valley","V0G1H0","Standard School","Elementary","YES","NO","NO","NO",49.4431653,-117.5439224,220
"2025/2026","00807034","Winlaw Elementary School","008","Kootenay Lake","Public School","PO Box 10","Winlaw","V0G2J0","Standard School","Elementary","YES","NO","NO","NO",49.6135198,-117.5656456,95
"2025/2026","00807035","Redfish Elementary School","008","Kootenay Lake","Public School","265 Bryan Rd","Nelson","V1L6M9","Standard School","Elementary","YES","NO","NO","NO",49.6134536,-117.0490073,145
"2025/2026","00886004","Adam Robertson Elementary","008","Kootenay Lake","Public School","421 9 Ave N","Creston","V0B1G0","Standard School","Elementary","YES","NO","NO","NO",49.1011171,-116.5149985,495
"2025/2026","00886005","Jewett Elementary","008","Kootenay Lake","Public School","PO Box 39","Meadow Creek","V0G1N0","Standard School","Elementary","NO","NO","NO","NO",50.241109,-116.9760404,95
"2025/2026","00886006","Crawford Bay Elem-Secondary","008","Kootenay Lake","Public School","PO Box 100","Crawford Bay","V0B1E0","Standard School","Elementary-Secondary","YES","NO","NO","NO",49.6794947,-116.8277944,190
"2025/2026","00886007","Kootenay River Secondary","008","Kootenay Lake","Public School","223 18th Ave S","Creston","V0B1G5","Standard School","Secondary","YES","NO","NO","NO",49.094471,-116.5043265,725
"2025/2026","00886014","Canyon/Lister Elementary","008","Kootenay Lake","Public School","4575 Canyon-Lister Road","Canyon","V0B1C0","Standard School","Elementary","YES","YES","YES","NO",49.0815901,-116.4505618,195
"2025/2026","00886016","Elev8 Homelinks","008","Kootenay Lake","Public School","PO Box 250","Creston","V0B1G0","Provincial Online Learning School","Elementary-Secondary","NO","NO","NO","NO",49.089684,-116.5130895,
"2025/2026","00886018","J V Humphries Elem-Secondary","008","Kootenay Lake","Public School","PO Box 577","Kaslo","V0G1M0","Standard School","Elementary-Secondary","YES","NO","NO","NO",49.9112776,-116.9099382,370
"2025/2026","00886019","Erickson Elementary","008","Kootenay Lake","Public School","PO Box 180","Erickson","V0B1K0","Standard School","Elementary","YES","NO","NO","NO",49.0908489,-116.467063,220
"2025/2026","00896143","St Joseph School","008","Kootenay Lake","Independent School","523 Mill St","Nelson","V1L4S2","Standard School","Elementary Jr. Secondary","YES","NO","NO","NO",49.4893883,-117.2908261,
"2025/2026","00896220","Whole School","008","Kootenay Lake","Independent School","PO Box 240","Winlaw","V0G2J0","Standard School","Elementary","YES","NO","NO","NO",49.6068985,-117.5677555,
"2025/2026","00896449","Nelson Waldorf School","008","Kootenay Lake","Independent School","3648 Silverking Ski Hill Road","Nelson","V1L6N2","Standard School","Elementary Jr. Secondary","YES","NO","NO","NO",49.49672926,-117.3590741,
"2025/2026","00896710","Nelson Christian Community School","008","Kootenay Lake","Independent School","570 Johnstone Rd","Nelson","V1L6J2","Standard School","Elementary Jr. Secondary","NO","NO","NO","NO",49.5058353,-117.268061,
"2025/2026","00896726","Mormon Hills Elementary Secondary","008","Kootenay Lake","Independent School","876 Lyons Rd","Creston","V0B1G2","Standard School","Elementary Jr. Secondary","NO","NO","NO","NO",49.0156004,-116.4315711,
"2025/2026","00896749","CHEK-ABC","008","Kootenay Lake","Independent School","570 Johnstone Rd","Nelson","V1L6J2","Provincial Online Learning School","Elementary-Secondary","YES","NO","NO","NO",49.5058353,-117.268061,
"2025/2026","00896864","Kootenay Valley Christian School","008","Kootenay Lake","Independent School","1152 21 Hwy N","Creston","V0B1G6","Standard School","Elementary Jr. Secondary","NO","NO","NO","NO",49.1086034,-116.5289534,
"2025/2026","00897558","Yaqan Nukiy School","008","Kootenay Lake","Independent School","904 Simon Rd","Creston","V0B1G2","Standard School","Elementary","NO","NO","NO","NO",49.0662966,-116.5155873,
"2025/2026","00898001","Elev8 D.E.S.K.","008","Kootenay Lake","Public School","811 Stanley St","Nelson","V1L1N8","Provincial Online Learning School","Elementary-Secondary","NO","NO","NO","NO",49.4890854,-117.2931844,
"2025/2026","00899178","Wildflower","008","Kootenay Lake","Public School","811 Stanley St","Nelson","V1L1N8","Standard School","Elementary Jr. Secondary","YES","NO","NO","NO",49.4890854,-117.2931844,
"2025/2026","00899225","Reach","008","Kootenay Lake","Public School","1004 Cottonwood St","Nelson","V1L3W2","Alternate Programs School","Senior Secondary","NO","NO","NO","NO",49.4890854,-117.2931844,
"2025/2026","00899298","Sequoia Centre","008","Kootenay Lake","Public School","PO Box 99","South Slocan","V0G2G0","Alternate Programs School","Secondary","NO","NO","NO","NO",49.4498938,-117.5596057,
"2025/2026","01010002","Burton Elementary","010","Arrow Lakes","Public School","PO Box 3","Burton","V0G1R1","Standard School","Elementary","YES","NO","NO","NO",49.9930662,-117.8715219,70
"2025/2026","01010003","Edgewood Elementary","010","Arrow Lakes","Public School","PO Box 129","Edgewood","V0G1J0","Standard School","Elementary","YES","NO","NO","NO",49.7810506,-118.1475356,120
"2025/2026","01010004","Nakusp Elementary","010","Arrow Lakes","Public School","PO Box 250","Nakusp","V0G1R0","Standard School","Elementary","YES","NO","NO","NO",50.2439204,-117.8047685,175
"2025/2026","01010006","Nakusp Secondary","010","Arrow Lakes","Public School","PO Box 249","Nakusp","V0G1R0","Standard School","Secondary","YES","NO","NO","NO",50.2459419,-117.8059754,300
"2025/2026","01010011","Lucerne Elem-Secondary","010","Arrow Lakes","Public School","PO Box 130","New Denver","V0G1S0","Standard School","Elementary-Secondary","YES","NO","NO","NO",49.9926095,-117.3702659,270
"2025/2026","01099217","Arrow Lakes Distributed Learning","010","Arrow Lakes","Public School","PO Box 130","New Denver","V0G1S0","District Online Learning School","Elementary-Secondary","NO","NO","NO","NO",49.9926095,-117.3702659,
"2025/2026","01919003","Revelstoke Secondary","019","Revelstoke","Public School","Bag 5100","Revelstoke","V0E2S0","Standard School","Secondary","YES","NO","NO","NO",50.9910745,-118.1988367,500
"2025/2026","01919013","Columbia Park Elementary","019","Revelstoke","Public School","Bag 7200","Revelstoke","V0E2S0","Standard School","Elementary","YES","NO","NO","NO",51.0145631,-118.2185754,295
"2025/2026","01919015","Arrow Heights Elementary","019","Revelstoke","Public School","Po Bag 7400","Revelstoke","V0E2S0","Standard School","Elementary","YES","NO","NO","NO",50.9769241,-118.1777034,270
"2025/2026","01919016","Begbie View Elementary","019","Revelstoke","Public School","Po Bag 7100","Revelstoke","V0E2S0","Standard School","Elementary","YES","NO","NO","NO",50.9921652,-118.202174,315
"2025/2026","02009006","Kinnaird Elementary","020","Kootenay-Columbia","Public School","2273 10 Ave","Castlegar","V1N2Z8","Standard School","Elementary","YES","NO","NO","NO",49.288242,-117.6543614,375
"2025/2026","02009010","Stanley Humphries Secondary","020","Kootenay-Columbia","Public School","720 7 Ave","Castlegar","V1N1R5","Standard School","Secondary","YES","YES","NO","NO",49.3204808,-117.6607466,850
"2025/2026","02009011","Twin Rivers Elementary","020","Kootenay-Columbia","Public School","649 7 Ave","Castlegar","V1N1R6","Standard School","Elementary","YES","YES","NO","NO",49.3209519,-117.6586409,325
"2025/2026","02011005","Fruitvale Elementary","020","Kootenay-Columbia","Public School","1867 W Columbia Gdns Rd B580","Fruitvale","V0G1L0","Standard School","Elementary","YES","NO","NO","NO",49.1119035,-117.5454555,465
"2025/2026","02011009","James L Webster Elementary","020","Kootenay-Columbia","Public School","395 Schofield Hwy","Trail","V1R2G5","Standard School","Elementary","YES","NO","NO","NO",49.0954976,-117.7440186,270
"2025/2026","02011012","J Lloyd Crowe Secondary","020","Kootenay-Columbia","Public School","1300 Frances Moran Rd","Trail","V1R4L9","Standard School","Elementary","YES","NO","NO","NO",49.1032993,-117.6989464,825
"2025/2026","02011014","Rossland Summit School","020","Kootenay-Columbia","Public School","Drawer 1269","Rossland","V0G1Y0","Standard School","Elementary Jr. Secondary","YES","YES","YES","NO",49.0807562,-117.7992667,595
"2025/2026","02011015","Glenmerry Elementary","020","Kootenay-Columbia","Public School","3660 Carnation Dr","Trail","V1R2W6","Standard School","Elementary","YES","NO","NO","NO",49.0985868,-117.6625841,270
"2025/2026","02020021","Robson Community School","020","Kootenay-Columbia","Public School","PO Box 259","Robson","V0G1X0","Standard School","Elementary","YES","NO","NO","NO",49.3354425,-117.6985053,220
"2025/2026","02020023","Kootenay Columbia Secondary","020","Kootenay-Columbia","Public School","2001 Third Ave","Trail","V1R1R6","Standard School","Secondary","NO","NO","NO","NO",49.0978854,-117.6942633,125
"2025/2026","02096098","St Michael's Elementary","020","Kootenay-Columbia","Independent School","1329 Fourth Ave","Trail","V1R1S3","Standard School","Elementary","YES","NO","NO","NO",49.1014077,-117.7018756,
"2025/2026","02222000","Continuing Ed SD 22","022","Vernon","Public School","3602 30 Ave","Vernon","V1T2E4","Continuing Education School","Senior Secondary","NO","NO","NO","NO",50.2644408,-119.2706671,
"2025/2026","02222001","Ecole Beairsto Elementary","022","Vernon","Public School","3302 27 St","Vernon","V1T4W7","Standard School","Elementary","NO","YES","YES","NO",50.2664146,-119.2668649,590
"2025/2026","02222002","Coldstream Elementary","022","Vernon","Public School","10104 Kalamalka Rd","Coldstream","V1B1L7","Standard School","Elementary","YES","NO","NO","NO",50.2226734,-119.2328781,395
"2025/2026","02222005","Cherryville Elementary","022","Vernon","Public School","108 North Fork Rd","Cherryville","V0E2G3","Standard School","Elementary","YES","NO","NO","NO",50.2438739,-118.6150031,145
"2025/2026","02222006","Lavington Elementary","022","Vernon","Public School","9715 School Rd","Vernon","V1B3G4","Standard School","Elementary","YES","NO","NO","NO",50.2311747,-119.1050583,195
"2025/2026","02222007","W.L. Seaton Secondary","022","Vernon","Public School","2701 41 Ave","Vernon","V1T6X3","Standard School","Secondary","YES","YES","NO","NO",50.272622,-119.2679841,825
"2025/2026","02222009","Harwood Elementary","022","Vernon","Public School","4320 20 St","Vernon","V1T4E3","Standard School","Elementary","YES","NO","NO","NO",50.2764594,-119.2586868,440
"2025/2026","02222010","J W Inglis Elementary","022","Vernon","Public School","PO Box 369","Lumby","V0E2G0","Standard School","Elementary","YES","NO","NO","NO",50.2540761,-118.9669675,345
"2025/2026","02222012","Silver Star Elementary","022","Vernon","Public School","1401-35 Ave","Vernon","V1T2R6","Standard School","Elementary","YES","NO","NO","NO",50.2674624,-119.2505599,465
"2025/2026","02222013","Okanagan Landing Elementary","022","Vernon","Public School","7322 Grant Rd","Vernon","V1H1G6","Standard School","Elementary","YES","NO","NO","NO",50.2380417,-119.3444042,370
"2025/2026","02222014","B X Elementary","022","Vernon","Public School","5849 Silver Star Rd","Vernon","V1B3P6","Standard School","Elementary","YES","NO","NO","NO",50.289353,-119.2229347,560
"2025/2026","02222015","Hillview Elementary","022","Vernon","Public School","1822 Francis St","Vernon","V1B3A5","Standard School","Elementary","YES","NO","NO","NO",50.2552307,-119.2383064,345
"2025/2026","02222017","Vernon Secondary","022","Vernon","Public School","2100-15th St","Vernon","V1T9X7","Standard School","Elementary","YES","NO","NO","NO",50.2575637,-119.2524996,950
"2025/2026","02222019","Mission Hill Elementary","022","Vernon","Public School","1510 36 St","Vernon","V1T6C8","Standard School","Elementary","YES","NO","NO","NO",50.2539418,-119.2827549,365
"2025/2026","02222020","Alexis Park Elementary","022","Vernon","Public School","4205 35 St","Vernon","V1T6C4","Standard School","Elementary","YES","NO","NO","NO",50.2739666,-119.2792155,320
"2025/2026","02222022","Kalamalka Secondary","022","Vernon","Public School","7900 Mcclounie Rd","Vernon","V1B1P8","Standard School","Elementary","YES","NO","NO","NO",50.2227207,-119.2495281,700
"2025/2026","02222024","Kidston Elementary","022","Vernon","Public School","12101 Linden Dr","Coldstream","V1B2H3","Standard School","Elementary","YES","NO","NO","NO",50.2235164,-119.2582378,345
"2025/2026","02222025","Clarence Fulton Secondary","022","Vernon","Public School","2301 Fulton Rd","Vernon","V1H1Y1","Standard School","Elementary","YES","NO","NO","NO",50.2492838,-119.3093114,950
"2025/2026","02222026","Ellison Elementary","022","Vernon","Public School","PO Box 2400","Vernon","V1H1S3","Standard School","Elementary","YES","NO","NO","NO",50.2505991,-119.3144702,440
"2025/2026","02222027","Charles Bloom Secondary","022","Vernon","Public School","PO Box 220","Lumby","V0E2G0","Standard School","Elementary-Secondary","YES","NO","NO","NO",50.2496767,-118.9644102,525
"2025/2026","02296035","Pleasant Valley Christian Academy","022","Vernon","Independent School","1802 45 Ave","Vernon","V1T3M7","Standard School","Elementary Jr. Secondary","NO","NO","NO","NO",50.2772458,-119.254425,
"2025/2026","02296078","St James","022","Vernon","Independent School","2700 28 Ave","Vernon","V1T1V7","Standard School","Elementary","YES","NO","NO","NO",50.2618475,-119.2674745,
"2025/2026","02296261","Vernon Christian School","022","Vernon","Independent School","6920 Pleasant Valley Rd","Vernon","V1B3R5","Standard School","Elementary-Secondary","YES","NO","NO","NO",50.3099782,-119.2452383,
"2025/2026","02296858","Okanagan Waldorf School","022","Vernon","Independent School","730 Whitevale Rd","Lumby","V0E2G7","Standard School","Elementary","NO","NO","NO","NO",50.2182937,-119.029751,
"2025/2026","02299083","Crossroads Learning Centre","022","Vernon","Public School","3602 30 Ave","Vernon","V1T2E4","Alternate Programs School","Secondary","NO","NO","NO","NO",50.2483917,-118.9638067,
"2025/2026","02299151","VLearn.ca","022","Vernon","Public School","2301 Fulton Rd","Vernon","V1H1Y1","District Online Learning School","Elementary-Secondary","YES","NO","NO","NO",50.2524664,-119.2488783,
"2025/2026","02299152","Alternative Learning Program","022","Vernon","Public School","3602 30 Ave","Vernon","V1T2E4","Alternate Programs School","Secondary","NO","NO","NO","NO",50.2524664,-119.2488783,
"2025/2026","02323000","Adult Education SD#23","023","Central Okanagan","Public School","1825 Richter St","Kelowna","V1Y2M8","Continuing Education School","Senior Secondary","NO","NO","NO","NO",49.8813048,-119.4868157,
"2025/2026","02323005","Central School Programs","023","Central Okanagan","Public School","1825 Richter St","Kelowna","V1Y2M8","Alternate Programs School","Elementary-Secondary","NO","NO","NO","NO",49.8813048,-119.4868157,
"2025/2026","02323008","Oyama Traditional School","023","Central Okanagan","Public School","15525 Greenhow Rd","Oyama","V4V2E1","Standard School","Elementary","YES","NO","NO","NO",50.1083709,-119.3697899,145
"2025/2026","02323014","Raymer Elementary","023","Central Okanagan","Public School","657 Raymer Ave","Kelowna","V1Y4Z6","Standard School","Elementary","YES","NO","NO","NO",49.8651826,-119.4890325,385
"2025/2026","02323015","Rutland Middle School","023","Central Okanagan","Public School","715 Rutland Rd N","Kelowna","V1X3B6","Standard School","Middle School","YES","NO","NO","NO",49.8979867,-119.3861629,425
"2025/2026","02323018","Glenmore Elementary","023","Central Okanagan","Public School","960 Glenmore Dr","Kelowna","V1Y4P1","Standard School","Elementary","YES","YES","NO","NO",49.8976293,-119.4559595,515
"2025/2026","02323022","South Kelowna Elementary","023","Central Okanagan","Public School","4176 Spiers Rd","Kelowna","V1W4B5","Standard School","Elementary","YES","NO","NO","NO",49.8349378,-119.4220089,295
"2025/2026","02323028","George Elliot Secondary","023","Central Okanagan","Public School","10241 Bottom Wood Lake Rd","Winfield","V4V1Y7","Standard School","Secondary","YES","YES","NO","NO",50.0311996,-119.400963,700
"2025/2026","02323029","Dr Knox Middle School","023","Central Okanagan","Public School","121 Drysdale Blvd","Kelowna","V1V2X9","Standard School","Middle School","YES","YES","NO","NO",49.9228948,-119.4347122,800
"2025/2026","02323030","Dorothea Walker Elementary","023","Central Okanagan","Public School","4346 Gordon Dr","Kelowna","V1W1S5","Standard School","Elementary","YES","YES","NO","NO",49.8262626,-119.483765,385
"2025/2026","02323031","A S Matheson Elementary","023","Central Okanagan","Public School","2090 Gordon Dr","Kelowna","V1Y3H9","Standard School","Elementary","YES","NO","NO","NO",49.8759985,-119.4777947,345
"2025/2026","02323032","North Glenmore Elementary","023","Central Okanagan","Public School","125 Snowsell St North","Kelowna","V1V2E3","Standard School","Elementary","YES","NO","NO","NO",49.9285683,-119.43686,625
"2025/2026","02323033","South Rutland Elementary","023","Central Okanagan","Public School","200 Mallach Rd","Kelowna","V1X2W5","Standard School","Elementary","YES","NO","NO","NO",49.8874659,-119.3818469,295
"2025/2026","02323034","Bankhead Elementary","023","Central Okanagan","Public School","1280 Wilson Ave","Kelowna","V1Y6Y6","Standard School","Elementary","YES","NO","NO","NO",49.8916212,-119.4716063,415
"2025/2026","02323038","KLO Middle School","023","Central Okanagan","Public School","3130 Gordon Dr","Kelowna","V1W3M4","Standard School","Middle School","YES","YES","NO","NO",49.8601915,-119.4766737,700
"2025/2026","02323042","Peachland Elementary","023","Central Okanagan","Public School","5486 Clements Cres","Peachland","V0H1X5","Standard School","Elementary","YES","NO","NO","NO",49.785888,-119.7178522,290
"2025/2026","02323043","Belgo Elementary School","023","Central Okanagan","Public School","125 Adventure Rd","Kelowna","V1X1N3","Standard School","Elementary","YES","YES","NO","NO",49.8823009,-119.3893171,340
"2025/2026","02323044","Rutland Senior Secondary","023","Central Okanagan","Public School","705 Rutland Rd N","Kelowna","V1X3B6","Standard School","Elementary","YES","NO","NO","NO",49.8969396,-119.3837848,1550
"2025/2026","02323046","Casorso Elementary","023","Central Okanagan","Public School","3675 Casorso Rd","Kelowna","V1W3E1","Standard School","Elementary","YES","YES","NO","NO",49.852691,-119.4809706,460
"2025/2026","02323047","Springvalley Middle School","023","Central Okanagan","Public School","350 Ziprick Rd","Kelowna","V1X4H3","Standard School","Elementary","YES","NO","NO","NO",49.885162,-119.4185961,550
"2025/2026","02323048","Pearson Road Elementary","023","Central Okanagan","Public School","700 Pearson Rd","Kelowna","V1X5H8","Standard School","Elementary","YES","NO","NO","NO",49.8988556,-119.3994835,485
"2025/2026","02323049","Glenrosa Elementary","023","Central Okanagan","Public School","3430 Webber Rd","West Kelowna","V4T1G8","Standard School","Elementary","YES","YES","NO","NO",49.839497,-119.6559143,360
"2025/2026","02323050","Springvalley Elementary","023","Central Okanagan","Public School","470 Ziprick Rd","Kelowna","V1X4H4","Standard School","Elementary","YES","NO","NO","NO",49.8838102,-119.4183439,345
"2025/2026","02323051","Mount Boucherie Secondary","023","Central Okanagan","Public School","2751 Cameron Rd","West Kelowna","V1Z2T6","Standard School","Secondary","YES","NO","NO","NO",49.8589999,-119.5827126,1325
"2025/2026","02323052","Hudson Road Elementary","023","Central Okanagan","Public School","1221 Hudson Rd","West Kelowna","V1Z1J5","Standard School","Elementary","YES","YES","NO","NO",49.8624837,-119.5644334,290
"2025/2026","02323055","Bellevue Creek Elementary","023","Central Okanagan","Public School","4574 Raymer Rd","Kelowna","V1W1H9","Standard School","Elementary","NO","YES","NO","NO",49.8170119,-119.4790293,295
"2025/2026","02323056","Black Mountain Elementary","023","Central Okanagan","Public School","1650 Gallagher Rd","Kelowna","V1P1G7","Standard School","Elementary","YES","NO","NO","NO",49.8672889,-119.3498792,390
"2025/2026","02323058","Helen Gorman Elementary","023","Central Okanagan","Public School","3230 Salmon Rd","West Kelowna","V4T1A7","Standard School","Elementary","YES","NO","NO","NO",49.8459267,-119.6716437,295
"2025/2026","02323059","Okanagan Mission Secondary","023","Central Okanagan","Public School","4544 Gordon Dr","Kelowna","V1W1T4","Standard School","Elementary","YES","YES","NO","NO",49.8185945,-119.4851097,1050
"2025/2026","02323060","Quigley Elementary","023","Central Okanagan","Public School","705 Kitch Rd","Kelowna","V1X5V8","Standard School","Elementary","YES","NO","NO","NO",49.880364,-119.4001467,490
"2025/2026","02323061","Peter Greer Elementary","023","Central Okanagan","Public School","10300 Sherman Dr","Winfield","V4V1Y8","Standard School","Elementary","YES","YES","NO","NO",50.0317678,-119.3900161,410
"2025/2026","02323063","Webber Road Elementary","023","Central Okanagan","Public School","2829 Inverness Rd","West Kelowna","V4T1J5","Standard School","Elementary","YES","NO","NO","NO",49.8309546,-119.6503057,195
"2025/2026","02323065","Rose Valley Elementary","023","Central Okanagan","Public School","1680 Westlake Rd","West Kelowna","V1Z3G6","Standard School","Elementary","YES","NO","NO","NO",49.8873616,-119.5558947,345
"2025/2026","02323066","Davidson Road Elementary","023","Central Okanagan","Public School","2115 Davidson Rd","Lake Country","V4V1R3","Standard School","Elementary","YES","NO","NO","NO",50.0495838,-119.4278834,415
"2025/2026","02323067","Shannon Lake Elementary","023","Central Okanagan","Public School","3044 Sandstone Dr","West Kelowna","V4T1T2","Standard School","Elementary","YES","NO","NO","NO",49.8523709,-119.6133229,405
"2025/2026","02323070","Anne McClymont Elementary","023","Central Okanagan","Public School","4489 Lakeshore Rd","Kelowna","V1W1W9","Standard School","Elementary","YES","NO","NO","NO",49.8203795,-119.4901988,375
"2025/2026","02323071","Glenrosa Middle School","023","Central Okanagan","Public School","2974 Glen Abbey Pl","West Kelowna","V4T2N1","Standard School","Middle School","YES","YES","YES","NO",49.8339049,-119.6580304,750
"2025/2026","02323072","Ellison Elementary","023","Central Okanagan","Public School","3735 Parkdale Rd","Kelowna","V1X6K9","Standard School","Elementary","YES","NO","NO","NO",49.9385295,-119.3540458,270
"2025/2026","02323073","Chief Tomat Elementary","023","Central Okanagan","Public School","3365 East Boundary Rd","West Kelowna","V4T2R8","Standard School","Elementary","YES","NO","NO","NO",49.841816,-119.588686,295
"2025/2026","02323074","Watson Road Elementary","023","Central Okanagan","Public School","475 Yates Rd","Kelowna","V1V1R3","Standard School","Elementary","YES","NO","NO","NO",49.9122892,-119.4492417,530
"2025/2026","02323075","Constable Neil Bruce Middle School","023","Central Okanagan","Public School","2010 Daimler Dr","West Kelowna","V1Z3Y4","Standard School","Elementary","YES","NO","NO","NO",49.8573584,-119.5973516,750
"2025/2026","02323076","Kelowna Secondary","023","Central Okanagan","Public School","1079 Raymer Ave","Kelowna","V1Y4Z7","Standard School","Elementary","YES","YES","NO","NO",49.8640577,-119.4783557,1600
"2025/2026","02323077","Rutland Elementary","023","Central Okanagan","Public School","620 Webster Rd","Kelowna","V1X4V5","Standard School","Elementary","YES","NO","NO","NO",49.8986412,-119.3755006,390
"2025/2026","02323078","Chute Lake Elementary","023","Central Okanagan","Public School","5240 Lark St","Kelowna","V1W4K8","Standard School","Elementary","YES","NO","NO","NO",49.7960002,-119.5102641,430
"2025/2026","02323079","Mar Jok Elementary","023","Central Okanagan","Public School","2101 Mcdougall Rd","West Kelowna","V1Z4A4","Standard School","Elementary","YES","NO","NO","NO",49.8759482,-119.5709013,460
"2025/2026","02323082","Central Secondary","023","Central Okanagan","Public School","1825 Richter St","Kelowna","V1Y2M8","Standard School","Senior Secondary","NO","NO","NO","NO",49.8813048,-119.4868157,
"2025/2026","02323084","Canyon Falls Middle School","023","Central Okanagan","Public School","1211 Frost Rd","Kelowna","V1W4P1","Standard School","Middle School","YES","NO","NO","NO",49.8043874,-119.4675803,750
"2025/2026","02323085","HS Grenda Middle School","023","Central Okanagan","Public School","10168 Konschuh Rd","Lake Country","V4V1T1","Standard School","Middle School","YES","YES","NO","NO",50.0293134,-119.3997789,600
"2025/2026","02396013","Immaculata Regional High School","023","Central Okanagan","Independent School","1493 K.L.O. Rd","Kelowna","V1W3N8","Standard School","Secondary","YES","NO","NO","NO",49.86079786,-119.4644782,
"2025/2026","02396023","Okanagan Christian School","023","Central Okanagan","Independent School","1035 Hollywood Rd S","Kelowna","V1X4N3","Standard School","Elementary-Secondary","NO","NO","NO","NO",49.8772606,-119.3972146,
"2025/2026","02396081","St Joseph Elementary School","023","Central Okanagan","Independent School","839 Sutherland Ave","Kelowna","V1Y5X4","Standard School","Elementary","YES","NO","NO","NO",49.8795169,-119.4848496,
"2025/2026","02396281","Kelowna Christian School","023","Central Okanagan","Independent School","2870 Benvoulin Rd","Kelowna","V1W2E3","Standard School","Elementary-Secondary","YES","NO","NO","NO",49.8628104,-119.4572087,
"2025/2026","02396360","Lakeside School Kelowna","023","Central Okanagan","Independent School","429 Collett Rd","Kelowna","V1W1K6","Standard School","Elementary","YES","NO","NO","NO",49.8171862,-119.4991918,
"2025/2026","02396479","Flex Academy","023","Central Okanagan","Independent School","907 Badke Rd","Kelowna","V1X5Z5","Standard School","Elementary-Secondary","NO","NO","NO","NO",49.8912721,-119.4047595,
"2025/2026","02396575","Okanagan Montessori Elementary School","023","Central Okanagan","Independent School","3439 East Kelowna Rd","Kelowna","V1W4H1","Standard School","Elementary","NO","NO","NO","NO",49.8668326,-119.4054837,
"2025/2026","02396609","Our Lady of Lourdes","023","Central Okanagan","Independent School","2547 Hebert Rd","West Kelowna","V4T2J6","Standard School","Elementary Jr. Secondary","YES","NO","NO","NO",49.8279514,-119.6336323,
"2025/2026","02396676","Kelowna Arts Academy","023","Central Okanagan","Independent School","1180 Houghton Rd","Kelowna","V1X2C9","Standard School","Elementary-Secondary","NO","NO","NO","NO",49.8926723,-119.4098538,
"2025/2026","02396689","Aberdeen Hall Preparatory School","023","Central Okanagan","Independent School","950 Academy Way","Kelowna","V1V3A4","Standard School","Elementary-Secondary","YES","NO","NO","NO",49.9351261,-119.4022314,
"2025/2026","02396719","Kleos Open Learning","023","Central Okanagan","Independent School","101-460 Doyle Ave.","Kelowna","V1Y0C2","Provincial Online Learning School","Elementary-Secondary","YES","NO","NO","NO",49.8851255,-119.4980485,
"2025/2026","02396738","Heritage Christian Online School","023","Central Okanagan","Independent School","905 Badke Rd","Kelowna","V1X5Z5","Provincial Online Learning School","Elementary-Secondary","YES","NO","NO","NO",49.8905358,-119.4045306,
"2025/2026","02396966","The Balsam School","023","Central Okanagan","Independent School","101-460 Doyle Ave.","Kelowna","V1Y0C2","Standard School","Elementary","YES","NO","NO","NO",49.8919062,-119.4921213,
"2025/2026","02397006","Sensisyusten House of Learning","023","Central Okanagan","Independent School","1920 Quail Lane","Westbank","V4T2H3","Standard School","Elementary","NO","NO","NO","NO",49.8404442,-119.5963871,
"2025/2026","02399159","eSchool23","023","Central Okanagan","Public School","1040 Hollywood Road S","Kelowna","V1X4N2","District Online Learning School","Elementary-Secondary","NO","NO","NO","NO",49.8891812,-119.4907914,
"2025/2026","02727007","Forest Grove Elementary","027","Cariboo-Chilcotin","Public School","PO Box 99","Forest Grove","V0K1M0","Standard School","Elementary","YES","NO","NO","NO",51.7693098,-121.0965853,120
"2025/2026","02727008","Horsefly Elem-Jr Secondary","027","Cariboo-Chilcotin","Public School","PO Box 39","Horsefly","V0L1L0","Standard School","Elementary Jr. Secondary","YES","NO","NO","NO",52.3342052,-121.4157448,195
"2025/2026","02727011","Marie Sharpe Elementary","027","Cariboo-Chilcotin","Public School","260 Cameron St","Williams Lake","V2G1S8","Standard School","Elementary","YES","NO","NO","NO",52.1348847,-122.1458444,370
"2025/2026","02727012","100 Mile House Elementary","027","Cariboo-Chilcotin","Public School","PO Box 460","100 Mile House","V0K2E0","Standard School","Elementary","YES","YES","NO","NO",51.6469978,-121.2940495,455
"2025/2026","02727014","Likely Elem-Jr Secondary","027","Cariboo-Chilcotin","Public School","PO Box 57","Likely","V0L1N0","Standard School","Elementary","YES","NO","NO","NO",52.6162242,-121.5584282,100
"2025/2026","02727020","Big Lake Elementary","027","Cariboo-Chilcotin","Public School","Box 70","Big Lake","V0L1G0","Standard School","Elementary","YES","NO","NO","NO",52.3778356,-121.8773848,50
"2025/2026","02727027","150 Mile Elementary","027","Cariboo-Chilcotin","Public School","PO Box 259","150 Mile House","V0K2G0","Standard School","Elementary","YES","NO","NO","NO",52.1072205,-121.9283131,265
"2025/2026","02727030","Lac La Hache Elementary","027","Cariboo-Chilcotin","Public School","PO Box 128","Lac La Hache","V0K1T0","Standard School","Elementary","YES","NO","NO","NO",51.8186098,-121.48234,95
"2025/2026","02727041","Chilcotin Road Elementary","027","Cariboo-Chilcotin","Public School","709 Lyne Rd","Williams Lake","V2G3Z3","Standard School","Elementary","YES","NO","NO","NO",52.1147374,-122.1723169,195
"2025/2026","02727045","Mountview Elementary","027","Cariboo-Chilcotin","Public School","1222 Dog Creek Rd","Williams Lake","V2G3G9","Standard School","Elementary","YES","NO","NO","NO",52.0998637,-122.1234469,195
"2025/2026","02727047","Columneetza Junior Secondary","027","Cariboo-Chilcotin","Public School","1045 Western Ave","Williams Lake","V2G2J8","Standard School","Middle School","YES","YES","NO","NO",52.1457897,-122.1512218,
"2025/2026","02727054","Anahim Lake Elem-Jr Secondary","027","Cariboo-Chilcotin","Public School","PO Box 3350","Anahim Lake","V0L1C0","Standard School","Elementary Jr. Secondary","NO","NO","NO","NO",51.9989707,-123.1622355,170
"2025/2026","02727056","Peter Skene Ogden Secondary","027","Cariboo-Chilcotin","Public School","PO Box 910","100 Mile House","V0K2E0","Standard School","Secondary","YES","YES","NO","NO",51.637295,-121.3017027,600
"2025/2026","02727057","Cataline Elementary","027","Cariboo-Chilcotin","Public School","1175 Blair St","Williams Lake","V2G1X3","Standard School","Elementary","YES","NO","NO","NO",52.1513672,-122.151738,310
"2025/2026","02727059","Naghtaneqed Elem-Jr Secondary","027","Cariboo-Chilcotin","Public School","PO Box 100","Nemaiah Valley","V0L1X0","Standard School","Elementary Jr. Secondary","NO","NO","NO","NO",51.4641359,-123.9480133,75
"2025/2026","02727061","Horse Lake Elementary","027","Cariboo-Chilcotin","Public School","6548 Ryall Rd","Lone Butte","V0K1X3","Standard School","Elementary","YES","NO","NO","NO",51.5750582,-121.1382954,270
"2025/2026","02727062","Mile 108 Elementary","027","Cariboo-Chilcotin","Public School","PO Box 27","108 Mile Ranch","V0K2Z0","Standard School","Elementary","YES","NO","NO","NO",51.7277384,-121.3320038,220
"2025/2026","02727065","Nesika Elementary","027","Cariboo-Chilcotin","Public School","1180 Moon Ave","Williams Lake","V2G4A6","Standard School","Elementary","YES","YES","NO","NO",52.1464601,-122.1543579,220
"2025/2026","02727066","Tatla Lake Elem-Jr Secondary","027","Cariboo-Chilcotin","Public School","PO Box 56","Tatla Lake","V0L1V0","Standard School","Elementary-Secondary","YES","NO","NO","NO",51.8964278,-124.6193725,100
"2025/2026","02727071","Alexis Creek Elementary/Secondary","027","Cariboo-Chilcotin","Public School","PO Box 199","Alexis Creek","V0L1A0","Standard School","Elementary-Secondary","NO","NO","NO","NO",52.0856285,-123.2762747,170
"2025/2026","02727072","Lake City Secondary","027","Cariboo-Chilcotin","Public School","640 Carson Drive","Williams Lake","V2G1T3","Standard School","Elementary","YES","YES","NO","NO",52.1361973,-122.1402319,1700
"2025/2026","02796177","Cariboo Adventist Academy","027","Cariboo-Chilcotin","Independent School","1405 South Lakeside Dr","Williams Lake","V2G3A7","Standard School","Elementary-Secondary","YES","NO","NO","NO",52.1121099,-122.1139006,
"2025/2026","02796263","Maranatha Christian School","027","Cariboo-Chilcotin","Independent School","1278 Lakeview Cres","Williams Lake","V2G1A3","Standard School","Elementary Jr. Secondary","YES","NO","NO","NO",52.126253,-122.1169408,
"2025/2026","02796566","Sacred Heart Catholic School","027","Cariboo-Chilcotin","Independent School","455 Pigeon Ave","Williams Lake","V2G4R5","Standard School","Elementary","YES","NO","NO","NO",52.1361392,-122.1465645,
"2025/2026","02799060","Graduation Routes Other Ways","027","Cariboo-Chilcotin","Public School","320 Second Ave N","Williams Lake","V2G1Z9","District Online Learning School","Elementary-Secondary","YES","NO","NO","NO",52.1334289,-122.1457161,
"2025/2026","02799094","Skyline Alternate School","027","Cariboo-Chilcotin","Public School","320 Second Ave N","Williams Lake","V2G1Z9","Alternate Programs School","Secondary","NO","NO","NO","NO",52.1334289,-122.1457161,
"2025/2026","02799181","PSO Outback Storefront","027","Cariboo-Chilcotin","Public School","PO Box 910","100 Mile House","V0K2E0","Alternate Programs School","Secondary","NO","NO","NO","NO",51.6426617,-121.2977197,
"2025/2026","02828002","Wells Barkerville Elementary","028","Quesnel","Public School","PO Box 190","Wells","V0K2R0","Standard School","Elementary","YES","NO","NO","NO",53.1065363,-121.5747235,0
"2025/2026","02828004","Quesnel Junior School","028","Quesnel","Public School","950 Mountain Ash Rd","Quesnel","V2J3V7","Standard School","Middle School","YES","YES","NO","NO",52.9632645,-122.4508884,300
"2025/2026","02828008","Kersley Elementary School","028","Quesnel","Public School","2899 Arnoldus Rd","Quesnel","V2J6L2","Standard School","Elementary","YES","NO","NO","NO",52.837933,-122.418624,95
"2025/2026","02828016","Ecole Red Bluff Lhtako Elementary","028","Quesnel","Public School","1533 Maple Dr","Quesnel","V2J4A2","Standard School","Elementary","YES","YES","NO","NO",52.9641483,-122.465946,245
"2025/2026","02828020","Bouchie Lake Elementary School","028","Quesnel","Public School","2074 Blackwater Rd","Quesnel","V2J7B3","Standard School","Elementary","YES","NO","NO","NO",53.0267628,-122.5963007,220
"2025/2026","02828021","Dragon Lake Elementary","028","Quesnel","Public School","2671 Hydraulic Rd","Quesnel","V2J4H4","Standard School","Elementary","YES","NO","NO","NO",52.97308524,-122.4329561,195
"2025/2026","02828024","Carson Elementary School","028","Quesnel","Public School","1255 Graham Ave","Quesnel","V2J3E2","Standard School","Elementary","YES","NO","NO","NO",52.976171,-122.4771829,170
"2025/2026","02828032","Lakeview Elementary","028","Quesnel","Public School","1525 Beryl St","Quesnel","V2J4L8","Standard School","Elementary","YES","NO","NO","NO",52.9542878,-122.444604,245
"2025/2026","02828034","Correlieu Secondary School","028","Quesnel","Public School","850 Anderson Dr","Quesnel","V2J1G4","Standard School","Secondary","YES","YES","NO","NO",52.9667552,-122.5154571,800
"2025/2026","02828036","Voyageur Elementary School","028","Quesnel","Public School","1337 Lark Ave","Quesnel","V2J4K5","Standard School","Elementary","YES","NO","NO","NO",52.9774865,-122.5259922,245
"2025/2026","02828038","Parkland Elementary","028","Quesnel","Public School","5016 Bjornson Rd","Quesnel","V2J6X7","Standard School","Elementary","YES","NO","NO","NO",53.0852268,-122.4368395,195
"2025/2026","02828039","Riverview Elementary","028","Quesnel","Public School","346 Hartley St","Quesnel","V2J1W4","Standard School","Elementary","YES","NO","NO","NO",52.9771828,-122.5063245,195
"2025/2026","02828040","Barlow Creek Elementary","028","Quesnel","Public School","816 Barkerville Hwy","Quesnel","V2J6S6","Standard School","Elementary","YES","NO","NO","NO",53.0202674,-122.454483,195
"2025/2026","02828041","Nazko Valley Elementary","028","Quesnel","Public School","9560 Nazko Rd","Quesnel","V2J3H9","Standard School","Elementary","NO","NO","NO","NO",52.9962097,-122.6976857,75
"2025/2026","02896434","St Ann's School","028","Quesnel","Independent School","150 Sutherland Ave","Quesnel","V2J2J5","Standard School","Elementary Jr. Secondary","YES","NO","NO","NO",52.9871152,-122.4987839,
"2025/2026","02896621","North Cariboo Christian School","028","Quesnel","Independent School","2876 Red Bluff Rd","Quesnel","V2J6C7","Standard School","Elementary Jr. Secondary","NO","NO","NO","NO",52.9239129,-122.4660053,
"2025/2026","02896902","Fraser River Christian School","028","Quesnel","Independent School","8250 Hwy 97 S","Quesnel","V2J6M4","Standard School","Elementary Jr. Secondary","NO","NO","NO","NO",52.6211598,-122.4540318,
"2025/2026","02899005","Mcnaughton Centre","028","Quesnel","Public School","241 Kinchant St","Quesnel","V2J2R3","Alternate Programs School","Elementary","NO","NO","NO","NO",52.9767716,-122.4943008,
"2025/2026","02899174","Quesnel Online Learning","028","Quesnel","Public School","241 Kinchant St","Quesnel","V2J2R3","District Online Learning School","Elementary-Secondary","YES","NO","NO","NO",52.9767716,-122.4943008,
"2025/2026","03333000","Continuing Ed SD 33","033","Chilliwack","Public School","46361 Yale Rd","Chilliwack","V2P2P8","Continuing Education School","Senior Secondary","NO","NO","NO","NO",49.1765166,-121.9426403,
"2025/2026","03333003","Strathcona Elementary","033","Chilliwack","Public School","46375 Strathcona Rd","Chilliwack","V2P3T1","Standard School","Elementary","YES","NO","NO","NO",49.1873815,-121.9405107,440
"2025/2026","03333004","Chilliwack Middle School","033","Chilliwack","Public School","46354 Yale Rd","Chilliwack","V2P2R1","Standard School","Middle School","YES","YES","YES","NO",49.1735117,-121.9437672,525
"2025/2026","03333005","Sardis Elementary","033","Chilliwack","Public School","45775 Manuel Rd","Chilliwack","V2R2E6","Standard School","Elementary","YES","NO","NO","NO",49.1277523,-121.9584827,365
"2025/2026","03333008","Chilliwack Central Elementary Community","033","Chilliwack","Public School","9435 Young Rd","Chilliwack","V2P4S7","Standard School","Elementary","YES","NO","NO","NO",49.173623,-121.9529515,315
"2025/2026","03333009","Cultus Lake Swílhcha Community School","033","Chilliwack","Public School","71 Sunnyside Blvd","Cultus Lake","V2R5B5","Standard School","Elementary","YES","NO","NO","NO",49.0730107,-121.9763288,195
"2025/2026","03333010","East Chilliwack Elementary","033","Chilliwack","Public School","49190 Chilliwack Central Rd","Chilliwack","V2P6H3","Standard School","Elementary","YES","NO","NO","NO",49.1614174,-121.8636187,245
"2025/2026","03333011","Vedder Elementary","033","Chilliwack","Public School","45850 Promontory Rd","Chilliwack","V2R5Z5","Standard School","Elementary","YES","NO","NO","NO",49.1104447,-121.9548429,680
"2025/2026","03333012","Chilliwack Secondary","033","Chilliwack","Public School","46363 Yale Rd","Chilliwack","V2P2P8","Standard School","Secondary","YES","NO","NO","NO",49.1750668,-121.9416583,1200
"2025/2026","03333013","Cheam Elementary","033","Chilliwack","Public School","9895 Banford Rd","Chilliwack","V2P6H3","Standard School","Elementary","YES","YES","NO","NO",49.1818719,-121.8935178,120
"2025/2026","03333015","Yarrow Community School","033","Chilliwack","Public School","4605 Wilson Rd","Chilliwack","V2R5C4","Standard School","Elementary","YES","NO","NO","NO",49.0859535,-122.0455799,375
"2025/2026","03333016","Little Mountain Elementary","033","Chilliwack","Public School","9900 Carleton St","Chilliwack","V2P6E1","Standard School","Elementary","YES","NO","NO","NO",49.181666,-121.9293029,415
"2025/2026","03333017","Watson Elementary","033","Chilliwack","Public School","45305 Watson Rd","Chilliwack","V2R2H5","Standard School","Elementary","YES","NO","NO","NO",49.1125611,-121.9703776,490
"2025/2026","03333018","Sardis Secondary","033","Chilliwack","Public School","45460 Stevenson Rd","Chilliwack","V2R2Z6","Standard School","Elementary","YES","YES","NO","NO",49.1214134,-121.9667186,1200
"2025/2026","03333019","Bernard Elementary","033","Chilliwack","Public School","45465 Bernard Ave","Chilliwack","V2P1H5","Standard School","Elementary","YES","NO","NO","NO",49.1647255,-121.9659505,395
"2025/2026","03333023","Rosedale Traditional Community","033","Chilliwack","Public School","50850 Yale Rd Rr 1","Rosedale","V0X1X2","Standard School","Elementary","YES","NO","NO","NO",49.1734943,-121.8182166,545
"2025/2026","03333024","Robertson Elementary","033","Chilliwack","Public School","46106 Southlands Cres","Chilliwack","V2P1B1","Standard School","Elementary","YES","NO","NO","NO",49.1573174,-121.9486284,290
"2025/2026","03333028","McCammon Elementary","033","Chilliwack","Public School","9601 Hamilton St","Chilliwack","V2P3X4","Standard School","Elementary","YES","NO","NO","NO",49.1773321,-121.9684239,465
"2025/2026","03333029","Unsworth Elementary","033","Chilliwack","Public School","5685 Unsworth Rd","Chilliwack","V2R4P5","Standard School","Elementary","YES","NO","NO","NO",49.1051547,-121.9994775,415
"2025/2026","03333030","Leary Integrated Arts & Technology","033","Chilliwack","Public School","9320 Walden St","Chilliwack","V2P7Y2","Standard School","Elementary","YES","NO","NO","NO",49.1715977,-121.9207992,345
"2025/2026","03333033","A D Rundle Middle School","033","Chilliwack","Public School","45660 Hocking Ave","Chilliwack","V2P1A1","Standard School","Elementary","YES","NO","NO","NO",49.159136,-121.9625947,450
"2025/2026","03333034","Vedder Middle School","033","Chilliwack","Public School","45560 South Sumas Rd","Chilliwack","V2R1S3","Standard School","Middle School","YES","YES","YES","NO",49.1165258,-121.963579,600
"2025/2026","03333035","Tyson Elementary","033","Chilliwack","Public School","45170 S Sumas Rd","Chilliwack","V2R1W9","Standard School","Elementary","YES","NO","NO","NO",49.1170834,-121.9738782,290
"2025/2026","03333038","Mount Slesse Middle School","033","Chilliwack","Public School","5871 Tyson Rd","Chilliwack","V2R2R3","Standard School","Elementary","YES","NO","NO","NO",49.1095786,-121.9776519,650
"2025/2026","03333039","Evans Elementary","033","Chilliwack","Public School","7600 Evans Rd","Chilliwack","V2R1L2","Standard School","Elementary","YES","NO","NO","NO",49.1390256,-121.9775705,245
"2025/2026","03333040","Promontory Heights Community Elementary","033","Chilliwack","Public School","46200 Stoneview Dr","Chilliwack","V2R5W8","Standard School","Elementary","YES","NO","NO","NO",49.101207,-121.9444384,580
"2025/2026","03333042","Greendale Elementary","033","Chilliwack","Public School","6621 Sumas Prairie Rd","Chilliwack","V2R4K1","Standard School","Elementary","YES","NO","NO","NO",49.1218522,-122.0462465,170
"2025/2026","03333044","GW Graham Secondary","033","Chilliwack","Public School","45955 Thomas Rd","Chilliwack","V2R0B5","Standard School","Secondary","YES","NO","NO","NO",49.1077854,-121.9531831,1400
"2025/2026","03333045","Imagine High Integrated Arts/Technology","033","Chilliwack","Public School","45669 Yale Rd","Chilliwack","V2P2N1","Standard School","Secondary","YES","NO","NO","NO",49.1572922,-121.9612733,600
"2025/2026","03333046","Stitó:s Lá:lém Totí:lt","033","Chilliwack","Public School","5337 Tyson Road","Chilliwack","V2R3X7","Standard School","Elementary Jr. Secondary","YES","NO","NO","NO",,,930
"2025/2026","03396149","St Mary's","033","Chilliwack","Independent School","8909 Mary St","Chilliwack","V2P4J4","Standard School","Elementary","YES","NO","NO","NO",49.1641115,-121.9630404,
"2025/2026","03396181","Unity Christian School","033","Chilliwack","Independent School","50950 Hack Brown Road","Chilliwack","V4Z1K9","Standard School","Elementary-Secondary","YES","NO","NO","NO",49.1567235,-121.8149926,
"2025/2026","03396192","John Calvin School","033","Chilliwack","Independent School","4268 Stewart Rd","Chilliwack","V2R5G2","Standard School","Elementary Jr. Secondary","YES","NO","NO","NO",49.0790287,-122.0664789,
"2025/2026","03396209","Timothy Christian School","033","Chilliwack","Independent School","50420 Castleman Rd","Chilliwack","V2P6H4","Standard School","Elementary-Secondary","YES","NO","NO","NO",49.1906992,-121.8302488,
"2025/2026","03396251","Highroad Academy","033","Chilliwack","Independent School","46641 Chilliwack Central Rd","Chilliwack","V2P1K3","Standard School","Elementary-Secondary","YES","NO","NO","NO",49.163145,-121.9330655,
"2025/2026","03396354","Mount Cheam Christian School","033","Chilliwack","Independent School","48988 Yale Rd East","Chilliwack","V4Z0B2","Standard School","Elementary-Secondary","NO","NO","NO","NO",49.1759728,-121.8712022,
"2025/2026","03396641","Chilliwack Adventist Christian School","033","Chilliwack","Independent School","46018 Riverside Dr","Chilliwack","V2P3K8","Standard School","Elementary","YES","NO","NO","NO",49.179859,-121.9514338,
"2025/2026","03396824","Cascade Christian School","033","Chilliwack","Independent School","45657 Yale Road","Chilliwack","V2P2N1","Standard School","Elementary Jr. Secondary","NO","NO","NO","NO",49.156148,-121.9615374,
"2025/2026","03398003","Fraser Valley Distance Education","033","Chilliwack","Public School","46361 Yale Rd","Chilliwack","V2P2P8","District Online Learning School","Elementary","NO","NO","NO","NO",49.1765166,-121.9426403,
"2025/2026","03399056","Kw'íyeqel Secondary","033","Chilliwack","Public School","8855 Elm Dr","Chilliwack","V2P4Y8","Alternate Programs School","Secondary","NO","NO","NO","NO",49.1633073,-121.947882,
"2025/2026","03434000","Bakerview Centre for Learning - CE","034","Abbotsford","Public School","32622 Marshall Rd","Abbotsford","V2T4A2","Continuing Education School","Senior Secondary","NO","NO","NO","NO",49.0375009,-122.3204718,
"2025/2026","03434003","Mt Lehman Elementary","034","Abbotsford","Public School","6381 Mt Lehman Rd","Abbotsford","V4X2G5","Standard School","Elementary","YES","NO","NO","NO",49.1181532,-122.3836444,170
"2025/2026","03434005","ASIA - North Poplar","034","Abbotsford","Public School","32041 Marshall Rd","Abbotsford","V2T1A2","Standard School","Elementary","YES","NO","NO","NO",49.0385703,-122.3364461,265
"2025/2026","03434007","Semá:th Elementary School","034","Abbotsford","Public School","36321 Vye Rd","Abbotsford","V3G1Z5","Standard School","Elementary","YES","NO","NO","NO",49.0171994,-122.218884,245
"2025/2026","03434011","Bradner Elementary","034","Abbotsford","Public School","5291 Bradner Rd","Abbotsford","V4X2P5","Standard School","Elementary","NO","NO","NO","NO",49.0981547,-122.4279411,170
"2025/2026","03434016","South Poplar Traditional Elementary","034","Abbotsford","Public School","32746 Huntingdon Rd","Abbotsford","V2T5Z1","Standard School","Elementary","YES","NO","NO","NO",49.0161574,-122.3164134,140
"2025/2026","03434018","Clearbrook Elementary","034","Abbotsford","Public School","3614 Clearbrook Rd","Abbotsford","V2T6N3","Standard School","Elementary","YES","YES","NO","NO",49.0679343,-122.3365184,515
"2025/2026","03434019","King Traditional Elementary","034","Abbotsford","Public School","28776 King Rd","Abbotsford","V4X2R4","Standard School","Elementary","YES","NO","NO","NO",49.0306627,-122.427847,240
"2025/2026","03434021","Alexander Elementary","034","Abbotsford","Public School","2250 Lobban Rd","Abbotsford","V2S3W1","Standard School","Elementary","YES","NO","NO","NO",49.0424287,-122.2876476,295
"2025/2026","03434022","Abbotsford Senior Secondary School","034","Abbotsford","Public School","33355 Bevan  Ave","Abbotsford","V2S0E7","Standard School","Secondary","YES","NO","NO","NO",49.0433316,-122.2996964,1100
"2025/2026","03434023","Barrowtown Elementary","034","Abbotsford","Public School","5137 Tolmie Rd","Abbotsford","V3G2V4","Standard School","Elementary","YES","NO","NO","NO",49.0959972,-122.0998653,70
"2025/2026","03434025","Abbotsford Middle School","034","Abbotsford","Public School","33231 Bevan Ave","Abbotsford","V2S0A9","Standard School","Middle School","YES","NO","NO","NO",49.0419739,-122.3031361,600
"2025/2026","03434026","Aberdeen Elementary","034","Abbotsford","Public School","2975 Bradner Rd","Abbotsford","V4X1K6","Standard School","Elementary","YES","NO","NO","NO",49.0561523,-122.4272066,295
"2025/2026","03434027","McMillan Elementary","034","Abbotsford","Public School","34830 Oakhill Dr","Abbotsford","V2S7R3","Standard School","Elementary","YES","NO","NO","NO",49.0439172,-122.2591141,390
"2025/2026","03434028","Godson Elementary","034","Abbotsford","Public School","33130 Bevan Ave","Abbotsford","V2S1T6","Standard School","Elementary","YES","NO","NO","NO",49.0410558,-122.3066485,415
"2025/2026","03434031","Jackson Elementary","034","Abbotsford","Public School","33165 King Rd","Abbotsford","V2S7Z9","Standard School","Elementary","YES","NO","NO","NO",49.0315351,-122.3053239,270
"2025/2026","03434032","Ross Elementary","034","Abbotsford","Public School","2451 Ross Rd","Abbotsford","V4X1J3","Standard School","Elementary","YES","NO","NO","NO",49.0471101,-122.4061208,170
"2025/2026","03434033","Margaret Stenersen Elementary","034","Abbotsford","Public School","3060 Old Clayburn Rd","Abbotsford","V2S4H3","Standard School","Elementary","YES","YES","NO","NO",49.0576629,-122.2691363,400
"2025/2026","03434035","Auguston Traditional Elementary","034","Abbotsford","Public School","36367 Stephen Leacock Dr","Abbotsford","V3G2Z6","Standard School","Elementary","YES","NO","NO","NO",49.0839546,-122.2194748,455
"2025/2026","03434036","Ten Broeck Elementary","034","Abbotsford","Public School","2580 Stanley St","Abbotsford","V2T2R4","Standard School","Elementary","YES","NO","NO","NO",49.0499546,-122.3453884,440
"2025/2026","03434037","Centennial Park Elementary","034","Abbotsford","Public School","2527 Gladwin Rd","Abbotsford","V2T3N8","Standard School","Elementary","YES","YES","NO","NO",49.0479479,-122.3167465,365
"2025/2026","03434038","Yale Secondary","034","Abbotsford","Public School","34620 Old Yale Rd","Abbotsford","V2S7S6","Standard School","Secondary","YES","NO","NO","NO",49.0471034,-122.2638796,1100
"2025/2026","03434041","W J Mouat Secondary","034","Abbotsford","Public School","32355 Mouat Dr","Abbotsford","V2T4E9","Standard School","Secondary","YES","YES","NO","NO",49.0594378,-122.3324242,1200
"2025/2026","03434042","William A. Fraser Middle School","034","Abbotsford","Public School","34695 Blatchford Way","Abbotsford","V2S6M6","Standard School","Middle School","YES","NO","NO","NO",49.0450351,-122.2633864,600
"2025/2026","03434043","Dormick Park Elementary","034","Abbotsford","Public School","32161 Dormick Avenue","Abbotsford","V2T3J6","Standard School","Elementary","YES","NO","NO","NO",49.0445775,-122.3325812,240
"2025/2026","03434044","John Maclure Community School","034","Abbotsford","Public School","2990 Oriole Cres","Abbotsford","V2T4E1","Standard School","Elementary","YES","NO","NO","NO",49.0562573,-122.3193054,290
"2025/2026","03434045","Dr Thomas A Swift Elementary","034","Abbotsford","Public School","34800 Mierau St","Abbotsford","V2S5Y4","Standard School","Elementary","YES","NO","NO","NO",49.0664424,-122.259509,415
"2025/2026","03434046","Terry Fox Elementary","034","Abbotsford","Public School","3071 Babich St","Abbotsford","V2S5W5","Standard School","Elementary","YES","NO","NO","NO",49.0577513,-122.3019177,440
"2025/2026","03434047","Chief Dan George Middle","034","Abbotsford","Public School","32877 Old Riverside Rd","Abbotsford","V2S8K2","Standard School","Middle School","YES","YES","YES","NO",49.0667347,-122.3143715,600
"2025/2026","03434048","Prince Charles Elementary","034","Abbotsford","Public School","35410 Mckee Rd","Abbotsford","V3G3B1","Standard School","Elementary","YES","NO","NO","NO",49.0645034,-122.2427065,365
"2025/2026","03434049","Blue Jay Elementary","034","Abbotsford","Public School","30995 Southern Dr","Abbotsford","V2T6X5","Standard School","Elementary","NO","NO","NO","NO",49.0579175,-122.3669866,440
"2025/2026","03434050","Sandy Hill Elementary","034","Abbotsford","Public School","3836 Old Clayburn Rd","Abbotsford","V3G2Z5","Standard School","Elementary","YES","YES","NO","NO",49.0720007,-122.2472488,440
"2025/2026","03434051","Harry Sayers Elementary","034","Abbotsford","Public School","31321 Blueridge Dr","Abbotsford","V2T6W2","Standard School","Elementary","YES","NO","NO","NO",49.0686838,-122.3564291,390
"2025/2026","03434052","Rick Hansen Secondary","034","Abbotsford","Public School","31150 Blueridge Dr","Abbotsford","V2T5R2","Standard School","Secondary","YES","NO","NO","NO",49.0667058,-122.3616342,1150
"2025/2026","03434053","Mountain Elementary","034","Abbotsford","Public School","2299 Mountain Dr","Abbotsford","V3G1E6","Standard School","Elementary","YES","NO","NO","NO",49.0429861,-122.2348098,385
"2025/2026","03434054","Robert Bateman Secondary","034","Abbotsford","Public School","35045 Exbury Ave","Abbotsford","V2S7L1","Standard School","Secondary","YES","NO","NO","NO",49.0695565,-122.253674,1100
"2025/2026","03434055","Dr Roberta Bondar Elementary","034","Abbotsford","Public School","32717 Chilcotin Dr","Abbotsford","V2T5S5","Standard School","Elementary","YES","NO","NO","NO",49.0718187,-122.3198826,365
"2025/2026","03434056","Dave Kandal Elementary","034","Abbotsford","Public School","3551 Crestview Ave","Abbotsford","V2T6T5","Standard School","Elementary","YES","NO","NO","NO",49.0669336,-122.3798468,265
"2025/2026","03434057","Colleen And Gordie Howe Middle School","034","Abbotsford","Public School","3174 Clearbrook Rd","Abbotsford","V2T4N6","Standard School","Middle School","YES","NO","NO","NO",49.0594288,-122.3324249,600
"2025/2026","03434058","Eugene Reimer Middle School","034","Abbotsford","Public School","3433 Firhill Dr","Abbotsford","V2T6X6","Standard School","Middle School","YES","NO","NO","NO",49.0649463,-122.3618537,600
"2025/2026","03434059","Mathxwí Elementary School","034","Abbotsford","Public School","33661 Elizabeth Ave","Abbotsford","V4X1T4","Standard School","Elementary","YES","NO","NO","NO",49.1059076,-122.292749,170
"2025/2026","03434060","Clayburn Middle School","034","Abbotsford","Public School","35139 Laburnum Ave","Abbotsford","V2S8N3","Standard School","Middle School","YES","NO","NO","NO",49.0712393,-122.2525531,600
"2025/2026","03434061","Abbotsford Traditional School","034","Abbotsford","Public School","2272 Windsor St","Abbotsford","V2T6M1","Standard School","Elementary-Secondary","YES","NO","NO","NO",49.043622,-122.3537508,750
"2025/2026","03434064","Abbotsford School Of Integrated Arts","034","Abbotsford","Public School","36232 Lower Sumas Mtn Rd","Abbotsford","V3G2J3","Standard School","Elementary","YES","NO","NO","NO",49.050254,-122.2191986,375
"2025/2026","03434066","Irene Kelleher Totí:ltawtxw","034","Abbotsford","Public School","2540 Eagle Mountain Drive","Abbotsford","V3G3A1","Standard School","Elementary","YES","NO","NO","NO",,,460
"2025/2026","03496020","Mennonite Educational Institute","034","Abbotsford","Independent School","4081 Clearbrook Rd","Abbotsford","V4X2M8","Standard School","Elementary-Secondary","YES","NO","NO","NO",49.0757702,-122.3477023,
"2025/2026","03496069","Abbotsford Christian School","034","Abbotsford","Independent School","35011 Old Clayburn Rd","Abbotsford","V2S7L7","Standard School","Elementary-Secondary","YES","NO","NO","NO",49.0626341,-122.2537106,
"2025/2026","03496320","Cornerstone Christian School","034","Abbotsford","Independent School","PO Box 520 Stn Main","Abbotsford","V2T6Z7","Standard School","Elementary Jr. Secondary","YES","NO","NO","NO",49.0740724,-122.3133117,
"2025/2026","03496371","Pacific Christian School","034","Abbotsford","Independent School","29623 Downes Rd","Abbotsford","V4X1Z8","Standard School","Elementary Jr. Secondary","NO","NO","NO","NO",49.0754978,-122.4023974,
"2025/2026","03496425","Dasmesh Punjabi School","034","Abbotsford","Independent School","5930 Riverside St","Abbotsford","V4X1T7","Standard School","Elementary-Secondary","YES","NO","NO","NO",49.1101876,-122.292956,
"2025/2026","03496454","St. James and St. Ann's Elementary","034","Abbotsford","Independent School","2767 Townline Rd","Abbotsford","V2T5E1","Standard School","Elementary","YES","NO","NO","NO",49.0516503,-122.3616056,
"2025/2026","03496595","St. John Brebeuf Regional Secondary","034","Abbotsford","Independent School","2747 Townline Rd","Abbotsford","V2T5E1","Standard School","Secondary","YES","NO","NO","NO",49.0516688,-122.3616178,
"2025/2026","03496801","West Coast Adventist Online School","034","Abbotsford","Independent School","300-1626 Mccallum Road","Abbotsford","V2S0P1","Provincial Online Learning School","Elementary-Secondary","NO","NO","NO","NO",49.0317672,-122.2924492,
"2025/2026","03499055","Bakerview Centre for Learning","034","Abbotsford","Public School","32622 Marshall Rd","Abbotsford","V2T4A2","Alternate Programs School","Secondary","NO","NO","NO","NO",49.0375009,-122.3204718,
"2025/2026","03499101","Abbotsford Virtual School","034","Abbotsford","Public School","33952 Pine St","Abbotsford","V2S2P3","Provincial Online Learning School","Elementary-Secondary","YES","NO","NO","NO",49.0504386,-122.2833426,
"2025/2026","03535002","Fort Langley Elementary","035","Langley","Public School","8877 Bartlett St","Fort Langley","V1M2S6","Standard School","Elementary","YES","NO","NO","NO",49.1637325,-122.5821864,365
"2025/2026","03535009","Belmont Elementary","035","Langley","Public School","20390 40 Ave","Langley","V3A2X1","Standard School","Elementary","YES","YES","NO","NO",49.0740023,-122.6597468,535
"2025/2026","03535010","U-Connect","035","Langley","Public School","20190 48 Ave","Langley","V3A3L4","District Online Learning School","Elementary-Secondary","YES","NO","NO","NO",49.0885935,-122.6646828,
"2025/2026","03535015","North Otter Elementary","035","Langley","Public School","5370 248 St","Aldergrove","V4W1A7","Standard School","Elementary","YES","NO","NO","NO",49.0997903,-122.5354451,315
"2025/2026","03535016","Willoughby Elementary","035","Langley","Public School","20766 80 Ave","Langley","V2Y1X6","Standard School","Elementary","YES","NO","NO","NO",49.1471017,-122.6467932,440
"2025/2026","03535017","Glenwood Elementary","035","Langley","Public School","20785 24 Ave","Langley","V2Z2B4","Standard School","Elementary","YES","NO","NO","NO",49.0463042,-122.6481223,195
"2025/2026","03535019","Langley Secondary","035","Langley","Public School","21405 56 Ave","Langley","V2Y2N1","Standard School","Secondary","YES","NO","NO","NO",49.1054484,-122.6289222,800
"2025/2026","03535020","Aldergrove Community Secondary","035","Langley","Public School","26850 29 Ave","Aldergrove","V4W3C1","Standard School","Secondary","YES","NO","NO","NO",49.0538514,-122.48118,1100
"2025/2026","03535022","Simonds Elementary","035","Langley","Public School","20190 48 Ave","Langley","V3A3L4","Standard School","Elementary","YES","NO","NO","NO",49.0885935,-122.6646828,390
"2025/2026","03535023","Coghlan Fundamental Elementary","035","Langley","Public School","4452 256th St","Aldergrove","V4W1J3","Standard School","Elementary","YES","NO","NO","NO",49.0827218,-122.5137847,145
"2025/2026","03535024","Wix-Brown Elementary","035","Langley","Public School","23851 24 Ave","Langley","V2Z3A3","Standard School","Elementary","YES","NO","NO","NO",49.045772,-122.5637261,295
"2025/2026","03535026","Peterson Road Elementary","035","Langley","Public School","23422 47 Ave","Langley","V2Z2S3","Standard School","Elementary","YES","NO","NO","NO",49.0860577,-122.5746217,320
"2025/2026","03535029","Langley Fine Arts School","035","Langley","Public School","9096 Trattle St","Fort Langley","V1M2S6","Standard School","Elementary-Secondary","YES","NO","NO","NO",49.1681543,-122.5869218,900
"2025/2026","03535032","Parkside Centennial Elementary","035","Langley","Public School","3300 270 St","Aldergrove","V4W3H2","Standard School","Elementary","YES","NO","NO","NO",49.0627462,-122.4750756,490
"2025/2026","03535033","Blacklock Fine Arts Elementary","035","Langley","Public School","5100 206 St","Langley","V3A2E5","Standard School","Elementary","YES","NO","NO","NO",49.0960094,-122.6507331,395
"2025/2026","03535034","D.W. Poppy Secondary","035","Langley","Public School","23752 52 Ave","Langley","V2Z2P3","Standard School","Secondary","YES","NO","NO","NO",49.0953643,-122.5660362,1125
"2025/2026","03535036","Brookswood Secondary","035","Langley","Public School","20902 37a Ave","Langley","V3A5N2","Standard School","Secondary","YES","YES","NO","NO",49.0702117,-122.6445411,1175
"2025/2026","03535037","Nicomekl Elementary","035","Langley","Public School","20050 53 Ave","Langley","V3A3T9","Standard School","Elementary","YES","NO","NO","NO",49.097607,-122.667337,590
"2025/2026","03535038","Alice Brown Elementary","035","Langley","Public School","20011 44 Ave","Langley","V3A6L8","Standard School","Elementary","YES","NO","NO","NO",49.0831004,-122.6680192,315
"2025/2026","03535039","Uplands Elementary","035","Langley","Public School","4471 207a St","Langley","V3A5V8","Standard School","Elementary","YES","NO","NO","NO",49.0833961,-122.650285,345
"2025/2026","03535040","James Kennedy Elementary","035","Langley","Public School","9060 212 St","Langley","V1M2B7","Standard School","Elementary","YES","YES","NO","NO",49.1669857,-122.6336614,585
"2025/2026","03535041","R E Mountain Secondary","035","Langley","Public School","7633 202a St","Langley","V2Y1W4","Standard School","Secondary","YES","NO","NO","NO",49.1419606,-122.6631723,2075
"2025/2026","03535042","Shortreed Community School","035","Langley","Public School","27330 28 Ave","Aldergrove","V4W3K1","Standard School","Elementary","YES","NO","NO","NO",49.0523427,-122.4662583,470
"2025/2026","03535043","West Langley Elementary","035","Langley","Public School","9403 212 St","Langley","V1M1M1","Standard School","Elementary","YES","NO","NO","NO",49.1746502,-122.6364117,295
"2025/2026","03535044","Noel Booth Elementary","035","Langley","Public School","20202 35 Ave","Langley","V3A0N1","Standard School","Elementary","YES","NO","YES","NO",49.0650371,-122.6618536,370
"2025/2026","03535045","Douglas Park Community","035","Langley","Public School","5409 206 St","Langley","V3A2C5","Standard School","Elementary","YES","NO","NO","NO",49.1009538,-122.6529381,345
"2025/2026","03535046","Langley Meadows Elementary","035","Langley","Public School","2244 Willoughby Way","Langley","V2Y1C1","Standard School","Elementary","YES","NO","NO","NO",49.1211058,-122.672134,440
"2025/2026","03535047","Alex Hope Elementary","035","Langley","Public School","21150 85 Ave","Langley","V1M2M4","Standard School","Elementary","YES","YES","YES","NO",49.1566784,-122.6360255,565
"2025/2026","03535048","Gordon Greenwood Elementary","035","Langley","Public School","9175 206 St","Langley","V1M2X2","Standard School","Elementary","YES","NO","NO","NO",49.1691851,-122.6527565,440
"2025/2026","03535050","Walnut Grove Secondary","035","Langley","Public School","8919 Walnut Grove Dr","Langley","V1M2N7","Standard School","Secondary","YES","YES","NO","NO",49.1658005,-122.641879,1750
"2025/2026","03535051","James Hill Elementary","035","Langley","Public School","22144 Old Yale Rd","Langley","V2Z1B5","Standard School","Elementary","YES","NO","NO","NO",49.0841809,-122.6100785,415
"2025/2026","03535052","Langley Fundamental Elementary","035","Langley","Public School","21789 50 Ave","Langley","V3A3T2","Standard School","Elementary","YES","NO","NO","NO",49.0938752,-122.6202716,465
"2025/2026","03535053","Dorothy Peacock Elementary","035","Langley","Public School","20292 91a Ave","Langley","V1M2G2","Standard School","Elementary","YES","NO","NO","NO",49.167824,-122.6602872,390
"2025/2026","03535054","Topham Elementary","035","Langley","Public School","21555 91 Ave","Langley","V1M3Z3","Standard School","Elementary","YES","NO","NO","NO",49.1683132,-122.6256935,390
"2025/2026","03535055","R C Garnett Demonstration Elementary","035","Langley","Public School","7096 201 St","Langley","V2Y3G7","Standard School","Elementary","YES","NO","NO","NO",49.1316649,-122.6633215,510
"2025/2026","03535056","Langley Fundamental Middle/Secondary Sch","035","Langley","Public School","21250 42 Ave","Langley","V3A8K6","Standard School","Elementary-Secondary","YES","NO","NO","NO",49.0774461,-122.6349455,775
"2025/2026","03535057","H D Stafford Middle","035","Langley","Public School","20441 Grade Cres","Langley","V3A4J8","Standard School","Middle School","YES","NO","NO","NO",49.0905837,-122.6570925,825
"2025/2026","03535058","Betty Gilbert Middle","035","Langley","Public School","26845 27 Ave","Aldergrove","V4W3E6","Standard School","Middle School","YES","NO","NO","NO",49.0517785,-122.4803652,390
"2025/2026","03535061","Lynn Fripps Elementary","035","Langley","Public School","21020 83 Ave","Langley","V2Y0K8","Standard School","Elementary","YES","NO","NO","NO",49.1519625,-122.6393963,660
"2025/2026","03535062","Richard Bulpitt Elementary","035","Langley","Public School","20965 77a Ave","Langley","V2Y2E6","Standard School","Elementary","YES","NO","NO","NO",49.1437853,-122.6415909,660
"2025/2026","03535063","Yorkson Creek Middle School","035","Langley","Public School","20686 84 Ave","Langley","V2Y2B5","Standard School","Middle School","YES","NO","NO","NO",49.1549288,-122.6495602,750
"2025/2026","03535065","Peter Ewart Middle School","035","Langley","Public School","7755 202a St","Langley","V2Y1W4","Standard School","Middle School","YES","NO","NO","NO",49.144277,-122.6631843,900
"2025/2026","03535066","Donna Gabriel Robins Elementary","035","Langley","Public School","7844 204b St","Langley","V2Y3N9","Standard School","Elementary","YES","NO","NO","NO",49.1454276,-122.6540963,555
"2025/2026","03535067","Josette Dandurand Elementary","035","Langley","Public School","20143 82 Avenue","Langley","V2Y2A8","Standard School","Elementary","YES","NO","NO","NO",,,
"2025/2026","03596003","SKY Secondary School","035","Langley","Independent School","20317 67 Ave","Langley","V2Y1P6","Standard School","Secondary","NO","NO","NO","NO",,,
"2025/2026","03596012","COMPASS Christian Langley (Glover Rd.)","035","Langley","Independent School","6866 Glover Rd","Langley","V2Y0W9","Standard School","Elementary Jr. Secondary","NO","NO","NO","NO",,,
"2025/2026","03596061","Fraser Valley Adventist Academy","035","Langley","Independent School","26026 48th Ave","Aldergrove","V4W1J2","Standard School","Elementary","YES","NO","NO","NO",49.088337,-122.502685,
"2025/2026","03596289","Credo Christian Schools","035","Langley","Independent School","21846 52 Ave","Langley","V2Y2M7","Standard School","Elementary-Secondary","YES","NO","NO","NO",49.0957585,-122.6179714,
"2025/2026","03596311","Langley Christian School","035","Langley","Independent School","22930 48 Ave","Langley","V2Z2T7","Standard School","Elementary-Secondary","YES","NO","NO","NO",49.0874976,-122.5892878,
"2025/2026","03596376","The King's School","035","Langley","Independent School","PO Box 28 Stn Milner","Langley","V2Y0W9","Standard School","Elementary-Secondary","YES","NO","YES","NO",49.1447722,-122.6172858,
"2025/2026","03596458","St Catherines School","035","Langley","Independent School","20244 32 Ave","Langley","V2Z2E1","Standard School","Elementary","YES","NO","NO","NO",49.0596328,-122.6625417,
"2025/2026","03596573","Aldergrove Christian Academy","035","Langley","Independent School","26245 28th Ave","Aldergrove","V4W2W3","Standard School","Elementary","NO","NO","NO","NO",49.0536135,-122.4965075,
"2025/2026","03596607","OneSchool Global Vancouver","035","Langley","Independent School","23328 44 Ave","Langley","V2Z2V2","Standard School","Elementary-Secondary","YES","NO","NO","NO",,,
"2025/2026","03596616","Murrayville Academy","035","Langley","Independent School","21488 Old Yale Road","Langley","V3A4M8","Standard School","Elementary","YES","NO","NO","NO",49.0906171,-122.6278738,
"2025/2026","03596631","Whytecliff Agile Learning Centre-Langley","035","Langley","Independent School","20561 Logan Ave","Langley","V3A7R3","Standard School","Elementary","NO","NO","NO","NO",49.1060398,-122.6527505,
"2025/2026","03596926","Khalsa School of the Fraser Valley","035","Langley","Independent School","26345 62 Ave","Langley","V4W1L8","Standard School","Elementary Jr. Secondary","NO","NO","NO","NO",49.1153341,-122.49419,
"2025/2026","03599050","Langley Education Centre","035","Langley","Public School","21405a 56 Ave","Langley","V2Y2N1","Continuing Education School","Secondary","NO","NO","NO","NO",49.1044394,-122.6289542,
"2025/2026","03599092","Vanguard","035","Langley","Public School","3825 244 St","Langley","V2Z2L1","Alternate Programs School","Secondary","NO","NO","NO","NO",49.0710391,-122.548628,
"2025/2026","03599168","Langley Online and Distributed Learning","035","Langley","Public School","21405a 56 Ave","Langley","V2Y2N1","Provincial Online Learning School","Secondary","NO","NO","NO","NO",49.1054484,-122.6289222,
"2025/2026","03599173","Choices Program","035","Langley","Public School","21405a 56 Ave","Langley","V2Y2N1","Alternate Programs School","Secondary","NO","NO","NO","NO",49.1044394,-122.6289542,
"2025/2026","03636000","Continuing Ed SD36 (Invergarry)","036","Surrey","Public School","12772 88 Ave","Surrey","V3W3J9","Continuing Education School","Secondary","NO","NO","NO","NO",49.1702677,-122.8323789,
"2025/2026","03636001","Hjorth Road Elementary","036","Surrey","Public School","14781 104 Ave","Surrey","V3R5X4","Standard School","Elementary","YES","NO","NO","NO",49.1916824,-122.8130568,270
"2025/2026","03636002","Port Kells Elementary","036","Surrey","Public School","19076 88 Ave","Surrey","V4N5T2","Standard School","Elementary","YES","NO","NO","NO",49.1626651,-122.6940048,170
"2025/2026","03636004","Cloverdale Traditional","036","Surrey","Public School","17857 56 Ave","Surrey","V3S1E2","Standard School","Elementary","YES","NO","NO","NO",49.1042916,-122.7282778,315
"2025/2026","03636009","White Rock Elementary","036","Surrey","Public School","1273 Fir St","White Rock","V4B5A6","Standard School","Elementary","YES","NO","NO","NO",49.0248139,-122.7997587,655
"2025/2026","03636012","Colebrook Elementary","036","Surrey","Public School","5404 125a St","Surrey","V3X1W6","Standard School","Elementary","YES","NO","NO","NO",49.1018321,-122.8742645,320
"2025/2026","03636018","East Kensington Elementary","036","Surrey","Public School","2795 184 St","Surrey","V3S9V2","Standard School","Elementary","YES","NO","NO","NO",49.052741,-122.7137719,100
"2025/2026","03636021","Sullivan Elementary","036","Surrey","Public School","6016 152 St","Surrey","V3S3K6","Standard School","Elementary","YES","NO","NO","NO",49.1119384,-122.8000005,460
"2025/2026","03636022","Queen Elizabeth Secondary","036","Surrey","Public School","9457 King George Blvd","Surrey","V3V5W4","Standard School","Elementary","YES","NO","NO","NO",49.1744781,-122.8465875,1600
"2025/2026","03636028","North Surrey Secondary","036","Surrey","Public School","15945 96 Ave","Surrey","V4N2R8","Standard School","Elementary","YES","NO","NO","NO",49.1770676,-122.780334,1175
"2025/2026","03636029","Harold Bishop Elementary","036","Surrey","Public School","15670 104 Ave","Surrey","V4N2J3","Standard School","Elementary","YES","NO","NO","NO",49.1913976,-122.787696,540
"2025/2026","03636031","Crescent Park Elementary","036","Surrey","Public School","2440 128 St","Surrey","V4A3W3","Standard School","Elementary","YES","NO","YES","NO",49.0467635,-122.8671394,490
"2025/2026","03636033","Bridgeview Elementary","036","Surrey","Public School","12834 115a Ave","Surrey","V3R2X4","Standard School","Elementary","YES","NO","NO","NO",49.2117926,-122.8659034,245
"2025/2026","03636034","J T Brown Elementary","036","Surrey","Public School","12530 60 Ave","Surrey","V3X2K8","Standard School","Elementary","YES","NO","NO","NO",49.1116228,-122.875675,320
"2025/2026","03636035","Latimer Road Elementary","036","Surrey","Public School","19233 60 Ave","Surrey","V3S2T5","Standard School","Elementary","YES","NO","NO","NO",49.1114617,-122.6901909,515
"2025/2026","03636036","Ray Shepherd Elementary","036","Surrey","Public School","1650 136 St","Surrey","V4A4E4","Standard School","Elementary","YES","NO","NO","NO",49.0321969,-122.8451767,470
"2025/2026","03636037","Dr F D Sinclair Elementary","036","Surrey","Public School","7480 128 St","Surrey","V3W4E5","Standard School","Elementary","YES","NO","NO","NO",49.1387807,-122.8676162,585
"2025/2026","03636038","Sunnyside Elementary","036","Surrey","Public School","2828 159 St","Surrey","V3S0E5","Standard School","Elementary","YES","NO","NO","NO",49.0535884,-122.7819158,700
"2025/2026","03636039","Surrey Centre Elementary","036","Surrey","Public School","16670 Old Mclellan Rd","Surrey","V3S1K3","Standard School","Elementary","YES","NO","NO","NO",49.1096785,-122.7591524,430
"2025/2026","03636040","K B Woodward Elementary","036","Surrey","Public School","13130 106 Ave","Surrey","V3T2C3","Standard School","Elementary","YES","NO","YES","NO",49.1951893,-122.8588329,730
"2025/2026","03636041","Lord Tweedsmuir Secondary","036","Surrey","Public School","6151 180 St","Surrey","V3S4L5","Standard School","Elementary","YES","NO","NO","NO",49.114454,-122.7240432,1400
"2025/2026","03636043","Green Timbers Elementary","036","Surrey","Public School","8824 144 St","Surrey","V3V5Z7","Standard School","Elementary","YES","NO","NO","NO",49.1635904,-122.8231816,615
"2025/2026","03636044","Prince Charles Elementary","036","Surrey","Public School","12405 100 Ave","Surrey","V3V2X2","Standard School","Elementary","YES","NO","NO","NO",49.1847708,-122.8782465,440
"2025/2026","03636045","Johnston Heights Secondary","036","Surrey","Public School","15350 99 Ave","Surrey","V3R0R9","Standard School","Elementary","YES","NO","NO","NO",49.1823856,-122.7967134,1450
"2025/2026","03636047","Guildford Park Secondary","036","Surrey","Public School","10707 146 St","Surrey","V3R1T5","Standard School","Elementary","YES","NO","NO","NO",49.1969501,-122.8178269,1050
"2025/2026","03636049","Semiahmoo Secondary","036","Surrey","Public School","1785 148 St","Surrey","V4A4M5","Standard School","Elementary","YES","NO","NO","NO",49.0351116,-122.8129712,1300
"2025/2026","03636050","Mountainview Montessori","036","Surrey","Public School","15225 98 Ave","Surrey","V3R1J2","Standard School","Elementary","YES","NO","NO","NO",49.1807643,-122.7994587,440
"2025/2026","03636051","A H P Matthew Elementary","036","Surrey","Public School","13367 97 Ave","Surrey","V3T1A4","Standard School","Elementary","YES","NO","NO","NO",49.1790656,-122.8524891,415
"2025/2026","03636053","T E Scott Elementary","036","Surrey","Public School","7079 148 St","Surrey","V3S3E5","Standard School","Elementary","YES","NO","NO","NO",49.1315107,-122.8124517,475
"2025/2026","03636054","Mary Jane Shannon Elementary","036","Surrey","Public School","10682 144 St","Surrey","V3T4W1","Standard School","Elementary","YES","NO","NO","NO",49.1965552,-122.8227659,490
"2025/2026","03636055","Lena Shaw Elementary","036","Surrey","Public School","14250 100a Ave","Surrey","V3T1K8","Standard School","Elementary","YES","NO","NO","NO",49.1850161,-122.827135,830
"2025/2026","03636056","H T Thrift Elementary","036","Surrey","Public School","1739 148 St","Surrey","V4A4M6","Standard School","Elementary","YES","NO","NO","NO",49.0337838,-122.8128705,270
"2025/2026","03636057","William Watson Elementary","036","Surrey","Public School","16450 80 Ave","Surrey","V4N0H3","Standard School","Elementary","YES","NO","NO","NO",49.14782,-122.76624,355
"2025/2026","03636058","David Brankin Elementary","036","Surrey","Public School","9160 128 St","Surrey","V3V5M8","Standard School","Elementary","YES","NO","NO","NO",49.1695538,-122.8677229,665
"2025/2026","03636059","Ecole Riverdale Elementary","036","Surrey","Public School","14835 108a Ave","Surrey","V3R1W9","Standard School","Elementary","YES","YES","NO","NO",49.20004,-122.8114131,580
"2025/2026","03636060","Senator Reid Elementary","036","Surrey","Public School","9341 126 St","Surrey","V3V5C4","Standard School","Elementary","YES","NO","NO","NO",49.1726523,-122.8738906,565
"2025/2026","03636061","Martha Currie Elementary","036","Surrey","Public School","5811 184 St","Surrey","V3S4N2","Standard School","Elementary","YES","YES","NO","NO",49.1078163,-122.7129516,680
"2025/2026","03636062","James Ardiel Elementary","036","Surrey","Public School","13751 112 Ave","Surrey","V3R2G4","Standard School","Elementary","YES","NO","NO","NO",49.206609,-122.8411124,540
"2025/2026","03636063","McLeod Road Traditional","036","Surrey","Public School","6325 142 St","Surrey","V3X1B9","Standard School","Elementary","YES","NO","NO","NO",49.1180003,-122.8291153,195
"2025/2026","03636064","Old Yale Road Elementary","036","Surrey","Public School","10135 132 St","Surrey","V3T3T6","Standard School","Elementary","YES","NO","NO","NO",49.1869232,-122.8568402,495
"2025/2026","03636067","Erma Stephenson Elementary","036","Surrey","Public School","10929 160 St","Surrey","V4N1P3","Standard School","Elementary","YES","NO","NO","NO",49.2009477,-122.7789258,415
"2025/2026","03636069","Bear Creek Elementary","036","Surrey","Public School","13780 80 Ave","Surrey","V3W7X6","Standard School","Elementary","YES","NO","NO","NO",49.1480029,-122.840954,655
"2025/2026","03636070","Peace Arch Elementary","036","Surrey","Public School","15877 Roper Ave","White Rock","V4B2H5","Standard School","Elementary","YES","YES","NO","NO",49.0256473,-122.7823957,390
"2025/2026","03636071","Henry Bose Elementary","036","Surrey","Public School","6550 134 St","Surrey","V3W4S3","Standard School","Elementary","YES","NO","NO","NO",49.121701,-122.850794,465
"2025/2026","03636072","Newton Elementary","036","Surrey","Public School","13359 81 Ave","Surrey","V3W3C5","Standard School","Elementary","YES","NO","NO","NO",49.1502236,-122.8527827,640
"2025/2026","03636073","Cedar Hills Elementary","036","Surrey","Public School","12370 98 Ave","Surrey","V3V2K3","Standard School","Elementary","YES","NO","NO","NO",49.1804976,-122.8797131,540
"2025/2026","03636077","Royal Heights Elementary","036","Surrey","Public School","11665 97 Ave","Surrey","V3V2B9","Standard School","Elementary","YES","NO","NO","NO",49.1791921,-122.8993991,340
"2025/2026","03636079","L.A. Matheson Secondary","036","Surrey","Public School","9484 122 St","Surrey","V3V4M1","Standard School","Secondary","YES","NO","NO","NO",49.1752903,-122.8843961,1400
"2025/2026","03636080","Surrey Traditional","036","Surrey","Public School","13875 113 Ave","Surrey","V3R2J6","Standard School","Elementary","YES","NO","NO","NO",49.2078317,-122.8382571,545
"2025/2026","03636081","Holly Elementary","036","Surrey","Public School","10719 150 St","Surrey","V3R4C8","Standard School","Elementary","YES","NO","NO","NO",49.1970927,-122.8065113,590
"2025/2026","03636082","Georges Vanier Elementary","036","Surrey","Public School","6985 142 St","Surrey","V3W5N1","Standard School","Elementary","YES","NO","NO","NO",49.1297299,-122.8290283,665
"2025/2026","03636084","Ellendale Elementary","036","Surrey","Public School","14525 110a Ave","Surrey","V3R2B4","Standard School","Elementary","YES","NO","NO","NO",49.2033336,-122.819201,195
"2025/2026","03636087","Simon Cunningham Elementary","036","Surrey","Public School","9380 140 St","Surrey","V3V5Z4","Standard School","Elementary","YES","YES","NO","NO",49.1731279,-122.8343507,635
"2025/2026","03636089","Jessie Lee Elementary","036","Surrey","Public School","2064 154 St","Surrey","V4A4S3","Standard School","Elementary","YES","NO","YES","NO",49.0397094,-122.7954681,465
"2025/2026","03636090","George Greenaway Elementary","036","Surrey","Public School","17285 61a Ave","Surrey","V3S1W3","Standard School","Elementary","YES","NO","NO","NO",49.1139813,-122.7425947,510
"2025/2026","03636105","Earl Marriott Secondary","036","Surrey","Public School","15751 16 Ave","Surrey","V4A1S1","Standard School","Elementary","YES","YES","NO","NO",49.0312624,-122.785439,1500
"2025/2026","03636106","Frank Hurt Secondary","036","Surrey","Public School","13940 77 Ave","Surrey","V3W5Z4","Standard School","Elementary","YES","NO","NO","NO",49.1425565,-122.8359106,1250
"2025/2026","03636107","Betty Huff Elementary","036","Surrey","Public School","13055 Huntley Ave","Surrey","V3V1V1","Standard School","Elementary","YES","NO","NO","NO",49.1724673,-122.8604095,565
"2025/2026","03636109","Strawberry Hill Elementary","036","Surrey","Public School","7633 124 St","Surrey","V3W8N2","Standard School","Elementary","YES","NO","NO","NO",49.1416582,-122.8795092,715
"2025/2026","03636111","Cindrich Elementary","036","Surrey","Public School","13455 90 Ave","Surrey","V3V8A2","Standard School","Elementary","YES","NO","NO","NO",49.1665215,-122.8499517,540
"2025/2026","03636112","Creekside Elementary","036","Surrey","Public School","13838 91 Ave","Surrey","V3V7K4","Standard School","Elementary","YES","NO","NO","NO",49.1680232,-122.8397032,490
"2025/2026","03636114","Enver Creek Secondary","036","Surrey","Public School","14505 84 Ave","Surrey","V3S8X2","Standard School","Elementary","YES","NO","NO","NO",49.1558268,-122.8202437,1400
"2025/2026","03636116","W E Kinvig Elementary","036","Surrey","Public School","13266 70b Ave","Surrey","V3W8N1","Standard School","Elementary","YES","NO","NO","NO",49.1310054,-122.8546718,565
"2025/2026","03636117","Laronde Elementary","036","Surrey","Public School","1880 Laronde Dr","Surrey","V4A9S4","Standard School","Elementary","NO","YES","NO","NO",49.0360397,-122.8588221,490
"2025/2026","03636118","South Meridian Elementary","036","Surrey","Public School","16244 13 Ave","Surrey","V4A8E6","Standard School","Elementary","YES","NO","NO","NO",49.0260203,-122.7726354,490
"2025/2026","03636122","Don Christian Elementary","036","Surrey","Public School","6256 184 St","Surrey","V3S8E6","Standard School","Elementary","YES","NO","NO","NO",49.116511,-122.7123101,390
"2025/2026","03636128","Bonaccord Elementary","036","Surrey","Public School","14986 98 Ave","Surrey","V3R1J1","Standard School","Elementary","YES","NO","NO","NO",49.1803527,-122.8068387,590
"2025/2026","03636129","M B Sanford Elementary","036","Surrey","Public School","7318 143 St","Surrey","V3W7T6","Standard School","Elementary","YES","NO","NO","NO",49.1357373,-122.8258784,640
"2025/2026","03636130","Maple Green Elementary","036","Surrey","Public School","14898 Spenser Dr","Surrey","V3S7K7","Standard School","Elementary","YES","NO","NO","NO",49.1573269,-122.8097361,540
"2025/2026","03636131","Hyland Elementary","036","Surrey","Public School","6677 140 St","Surrey","V3W5J3","Standard School","Elementary","YES","NO","NO","NO",49.1237147,-122.8346712,515
"2025/2026","03636132","Kennedy Trail Elementary","036","Surrey","Public School","8305 122a St","Surrey","V3W9P8","Standard School","Elementary","YES","NO","NO","NO",49.1539663,-122.8829326,340
"2025/2026","03636134","Pacific Heights Elementary","036","Surrey","Public School","17148 26 Ave","Surrey","V3S0A4","Standard School","Elementary","YES","YES","NO","NO",49.0491665,-122.7482186,630
"2025/2026","03636136","Berkshire Park Elementary","036","Surrey","Public School","15372 94 Ave","Surrey","V3R1E3","Standard School","Elementary","YES","NO","NO","NO",49.1733251,-122.7965425,565
"2025/2026","03636137","Panorama Park Elementary","036","Surrey","Public School","12878 62 Ave","Surrey","V3X2E8","Standard School","Elementary","YES","NO","NO","NO",49.1152968,-122.8659918,590
"2025/2026","03636138","North Ridge Elementary","036","Surrey","Public School","13460 62 Ave","Surrey","V3X2J2","Standard School","Elementary","YES","NO","NO","NO",49.1152511,-122.8490116,465
"2025/2026","03636139","Cougar Creek Elementary","036","Surrey","Public School","12236 70a Ave","Surrey","V3W4Z8","Standard School","Elementary","YES","NO","NO","NO",49.1308281,-122.8835648,590
"2025/2026","03636140","Martha Jane Norris Elementary","036","Surrey","Public School","12928 66a Ave","Surrey","V3W8Z7","Standard School","Elementary","YES","NO","NO","NO",49.1237254,-122.8642598,515
"2025/2026","03636141","Fraser Heights Secondary","036","Surrey","Public School","16060 108 Ave","Surrey","V4N1M1","Standard School","Elementary","YES","NO","NO","NO",49.1985996,-122.7769343,1200
"2025/2026","03636142","Fraser Wood Elementary","036","Surrey","Public School","10650 164 St","Surrey","V4N1W8","Standard School","Elementary","YES","NO","NO","NO",49.1961373,-122.7672262,490
"2025/2026","03636143","Serpentine Heights Elementary","036","Surrey","Public School","16126 93a Ave","Surrey","V4N3A2","Standard School","Elementary","YES","NO","NO","NO",49.173164,-122.7754479,465
"2025/2026","03636144","Boundary Park Elementary","036","Surrey","Public School","12332 North Boundary Dr","Surrey","V3X1Z6","Standard School","Elementary","YES","NO","NO","NO",49.1172859,-122.8811022,340
"2025/2026","03636145","Woodland Park Elementary","036","Surrey","Public School","9025 158 St","Surrey","V4N2Y6","Standard School","Elementary","YES","NO","NO","NO",49.1671439,-122.784751,490
"2025/2026","03636146","Brookside Elementary","036","Surrey","Public School","8555 142a St","Surrey","V3W0S6","Standard School","Elementary","YES","NO","NO","NO",49.158178,-122.8275544,515
"2025/2026","03636147","Westerman Elementary","036","Surrey","Public School","7626 122 St","Surrey","V3W1H4","Standard School","Elementary","YES","NO","NO","NO",49.141655,-122.8843742,565
"2025/2026","03636148","Chantrell Creek Elementary","036","Surrey","Public School","2575 137 St","Surrey","V4P2K5","Standard School","Elementary","YES","NO","NO","NO",49.048737,-122.8425255,390
"2025/2026","03636149","Sunrise Ridge Elementary","036","Surrey","Public School","18690 60 Ave","Surrey","V3S8L8","Standard School","Elementary","YES","NO","YES","NO",49.1111678,-122.7043876,305
"2025/2026","03636150","Tamanawis Secondary","036","Surrey","Public School","12600 66 Ave","Surrey","V3W2A8","Standard School","Secondary","YES","NO","NO","NO",49.1227196,-122.8724232,1125
"2025/2026","03636151","Cambridge Elementary","036","Surrey","Public School","6115 150 St","Surrey","V3S3H7","Standard School","Elementary","YES","NO","NO","NO",49.1137639,-122.8068464,530
"2025/2026","03636152","Walnut Road Elementary","036","Surrey","Public School","16152 82 Ave","Surrey","V4N0N5","Standard School","Elementary","YES","NO","NO","NO",49.1516999,-122.773619,580
"2025/2026","03636153","Adams Road Elementary","036","Surrey","Public School","18228 68 Ave","Surrey","V3S9H5","Standard School","Elementary","YES","NO","NO","NO",49.1257788,-122.7174506,530
"2025/2026","03636155","Coast Meridian Elementary","036","Surrey","Public School","8222 168a St","Surrey","V4N4T8","Standard School","Elementary","YES","NO","NO","NO",49.152419,-122.7549812,330
"2025/2026","03636156","Elgin Park Secondary","036","Surrey","Public School","13484 24 Ave","Surrey","V4A2G5","Standard School","Elementary","YES","NO","NO","NO",49.0455539,-122.8485943,1200
"2025/2026","03636157","Coyote Creek Elementary","036","Surrey","Public School","8131 156 St","Surrey","V3S3R4","Standard School","Elementary","YES","NO","NO","NO",49.1503347,-122.7903406,740
"2025/2026","03636158","Beaver Creek Elementary","036","Surrey","Public School","6505 123a St","Surrey","V3W5Y5","Standard School","Elementary","YES","NO","NO","NO",49.1212608,-122.8805208,530
"2025/2026","03636159","Dogwood Elementary","036","Surrey","Public School","10752 157 St","Surrey","V4N1K6","Standard School","Elementary","YES","NO","NO","NO",49.198073,-122.7867541,490
"2025/2026","03636160","Frost Road Elementary","036","Surrey","Public School","8606 162 St","Surrey","V4N1B5","Standard School","Elementary","YES","NO","NO","NO",49.1592875,-122.7730377,680
"2025/2026","03636161","Semiahmoo Trail Elementary","036","Surrey","Public School","3040 145a St","Surrey","V4P1P8","Standard School","Elementary","YES","NO","NO","NO",49.0576882,-122.8194026,540
"2025/2026","03636162","Bayridge Elementary","036","Surrey","Public School","1730 142 St","Surrey","V4A6G7","Standard School","Elementary","YES","NO","NO","NO",49.0334237,-122.8283997,340
"2025/2026","03636164","Sullivan Heights Secondary","036","Surrey","Public School","6248 144 St","Surrey","V3X1A1","Standard School","Elementary","YES","NO","NO","NO",49.1157455,-122.822941,1700
